[
  {
    "id": "ddc0c482-62c9-4072-88a0-181d357f87ac",
    "timestamp": 1745855589000,
    "latitude": -33.450333,
    "longitude": -70.659614,
    "type": "JAM",
    "subtype": "JAM_HEAVY_TRAFFIC",
    "street": "Salida 0-S > Toesca / Rondizzoni",
    "city": "Santiago",
    "country": "CI",
    "reliability": 6,
    "reportRating": 2,
    "confidence": 0
  },
  {
    "id": "e08c08cc-a3a1-4818-a04d-50ad5c457e59",
    "timestamp": 1745855286000,
    "latitude": -33.443894,
    "longitude": -70.782122,
    "type": "JAM",
    "subtype": "JAM_STAND_STILL_TRAFFIC",
    "street": "Av. San Pablo",
    "city": "Pudahuel",
    "country": "CI",
    "reliability": 5,
    "reportRating": 3,
    "confidence": 0
  },
  {
    "id": "0b524da6-a1db-42e5-b2d6-77f95e4eb07b",
    "timestamp": 1745855542000,
    "latitude": -33.496654,
    "longitude": -70.748067,
    "type": "HAZARD",
    "subtype": "HAZARD_ON_ROAD_OBJECT",
    "street": "Rafael Riesco Bernales",
    "city": "Maipú",
    "country": "CI",
    "reliability": 6,
    "reportRating": 2,
    "confidence": 0
  },
  {
    "id": "f29216ec-7dad-46d0-a021-53847e7da331",
    "timestamp": 1744948800000,
    "latitude": -33.474695,
    "longitude": -70.748857,
    "type": "ROAD_CLOSED",
    "subtype": "ROAD_CLOSED_EVENT",
    "street": "Longitudinal",
    "city": "Maipú",
    "country": "CI",
    "reliability": 6,
    "reportRating": 5,
    "confidence": 0
  },
  {
    "id": "fcfeeeab-f8a2-4fa0-942d-d969a7c28c0b",
    "timestamp": 1745855694000,
    "latitude": -33.47446,
    "longitude": -70.643708,
    "type": "HAZARD",
    "subtype": "HAZARD_ON_ROAD_TRAFFIC_LIGHT_FAULT",
    "street": "San Francisco",
    "city": "Santiago",
    "country": "CI",
    "reliability": 6,
    "reportRating": 3,
    "confidence": 0
  },
  {
    "id": "6368e634-8cd5-47a6-a0d0-d65b0411881f",
    "timestamp": 1745853375000,
    "latitude": -33.462936,
    "longitude": -70.541073,
    "type": "POLICE",
    "subtype": "",
    "street": "Av. José Arrieta",
    "city": "La Reina",
    "country": "CI",
    "reliability": 10,
    "reportRating": 2,
    "confidence": 5
  },
  {
    "id": "7dfc5e9b-6fdd-4e57-8511-bda500252d86",
    "timestamp": 1745856107000,
    "latitude": -33.42136,
    "longitude": -70.661304,
    "type": "POLICE",
    "subtype": "POLICE_HIDING",
    "street": "Gamero",
    "city": "Independencia",
    "country": "CI",
    "reliability": 10,
    "reportRating": 1,
    "confidence": 1
  },
  {
    "id": "bba9542e-799b-4c6d-86d9-d9e1d2f0c8b7",
    "timestamp": 1745326800000,
    "latitude": -33.44668,
    "longitude": -70.661444,
    "type": "HAZARD",
    "subtype": "HAZARD_ON_ROAD_LANE_CLOSED",
    "street": "Av. Libertador Bernardo O'Higgins",
    "city": "Santiago",
    "country": "CI",
    "reliability": 10,
    "reportRating": 0,
    "confidence": 5
  },
  {
    "id": "289e955c-3155-4bee-a6db-bf568ab2a130",
    "timestamp": 1717680414000,
    "latitude": -33.392276,
    "longitude": -70.674236,
    "type": "ROAD_CLOSED",
    "subtype": "ROAD_CLOSED_EVENT",
    "street": "Av. Independencia",
    "city": "Conchalí",
    "country": "CI",
    "reliability": 10,
    "reportRating": 5,
    "confidence": 3
  },
  {
    "id": "88710ccd-f4cc-4e37-a6cd-2d2a8a9b973d",
    "timestamp": 1745855660000,
    "latitude": -33.444156,
    "longitude": -70.652815,
    "type": "CHIT_CHAT",
    "subtype": "",
    "street": "Av. Libertador Bernardo O'Higgins",
    "city": "Santiago",
    "country": "CI",
    "reliability": 9,
    "reportRating": 2,
    "confidence": 2
  },
  {
    "id": "4bee8625-7bb3-46da-bc33-69e0aba94a9e",
    "timestamp": 1745855702000,
    "latitude": -33.342242,
    "longitude": -70.720907,
    "type": "ACCIDENT",
    "subtype": "",
    "street": "Las Esteras Norte",
    "city": "Quilicura",
    "country": "CI",
    "reliability": 5,
    "reportRating": 3,
    "confidence": 0
  },
  {
    "id": "8cdc3f30-a412-4564-bb8a-d131f8ad3bcf",
    "timestamp": 1745856711000,
    "latitude": -33.403214,
    "longitude": -70.5694,
    "type": "JAM",
    "subtype": "JAM_STAND_STILL_TRAFFIC",
    "street": "Av. Manquehue",
    "city": "Las Condes",
    "country": "CI",
    "reliability": 5,
    "reportRating": 1,
    "confidence": 0
  },
  {
    "id": "68dab425-4be9-4c0e-954f-0e56fbb59e2c",
    "timestamp": 1745853619000,
    "latitude": -33.439053,
    "longitude": -70.698043,
    "type": "HAZARD",
    "subtype": "HAZARD_ON_ROAD_CONSTRUCTION",
    "street": "Av. San Pablo",
    "city": "Quinta Normal",
    "country": "CI",
    "reliability": 10,
    "reportRating": 1,
    "confidence": 3
  },
  {
    "id": "d25b0188-b144-4a57-87e4-749207ea1183",
    "timestamp": 1735822083000,
    "latitude": -33.492763,
    "longitude": -70.763336,
    "type": "ROAD_CLOSED",
    "subtype": "ROAD_CLOSED_EVENT",
    "street": "Salida > El Rosal",
    "country": "CI",
    "reliability": 10,
    "reportRating": 5,
    "confidence": 5
  },
  {
    "id": "ac519373-dc7b-47e6-ac85-8bc615678310",
    "timestamp": 1745856696000,
    "latitude": -33.471928,
    "longitude": -70.598751,
    "type": "HAZARD",
    "subtype": "HAZARD_ON_SHOULDER_CAR_STOPPED",
    "street": "Av. José Pedro Alessandri",
    "city": "Ñuñoa",
    "country": "CI",
    "reliability": 5,
    "reportRating": 2,
    "confidence": 0
  },
  {
    "id": "7a712d8d-e030-4abf-9003-11aafda4ced0",
    "timestamp": 1745326800000,
    "latitude": -33.44766,
    "longitude": -70.667388,
    "type": "HAZARD",
    "subtype": "HAZARD_ON_ROAD_LANE_CLOSED",
    "street": "Av. Libertador Bernardo O'Higgins",
    "city": "Santiago",
    "country": "CI",
    "reliability": 10,
    "reportRating": 0,
    "confidence": 5
  },
  {
    "id": "30335e69-a55d-401c-a2d0-b9c55375a8a5",
    "timestamp": 1745853292000,
    "latitude": -33.401614,
    "longitude": -70.794795,
    "type": "POLICE",
    "subtype": "POLICE_HIDING",
    "city": "Pudahuel",
    "country": "CI",
    "reliability": 10,
    "reportRating": 0,
    "confidence": 3
  },
  {
    "id": "69807e89-c7cf-46ea-b3a1-049e66796d6a",
    "timestamp": 1745326800000,
    "latitude": -33.444874,
    "longitude": -70.653949,
    "type": "HAZARD",
    "subtype": "HAZARD_ON_ROAD_LANE_CLOSED",
    "street": "Av. Libertador Bernardo O'Higgins",
    "city": "Santiago",
    "country": "CI",
    "reliability": 10,
    "reportRating": 0,
    "confidence": 5
  },
  {
    "id": "12342b8a-c26b-4eb4-92dc-f2eb88670afa",
    "timestamp": 1745854849000,
    "latitude": -33.530323,
    "longitude": -70.635189,
    "type": "CHIT_CHAT",
    "subtype": "",
    "street": "Av. Santa Rosa",
    "city": "San Ramón",
    "country": "CI",
    "reliability": 10,
    "reportRating": 2,
    "confidence": 3
  },
  {
    "id": "aed05f1a-2737-4651-8948-15d891f13140",
    "timestamp": 1743690902000,
    "latitude": -33.472527,
    "longitude": -70.748497,
    "type": "ROAD_CLOSED",
    "subtype": "ROAD_CLOSED_EVENT",
    "street": "Longitudinal",
    "city": "Maipú",
    "country": "CI",
    "reliability": 6,
    "reportRating": 5,
    "confidence": 0
  },
  {
    "id": "42a73f63-8eb8-46fa-a30d-97abded5bbc7",
    "timestamp": 1737348297000,
    "latitude": -33.433401,
    "longitude": -70.723618,
    "type": "ROAD_CLOSED",
    "subtype": "ROAD_CLOSED_EVENT",
    "street": "Vicuña Rozas",
    "city": "Cerro Navia",
    "country": "CI",
    "reliability": 7,
    "reportRating": 5,
    "confidence": 0
  },
  {
    "id": "eeaa8cc7-a546-4f4a-93ea-ba4211b022a7",
    "timestamp": 1745854811000,
    "latitude": -33.491486,
    "longitude": -70.559145,
    "type": "ROAD_CLOSED",
    "subtype": "ROAD_CLOSED_EVENT",
    "street": "Av. Tobalaba",
    "city": "Peñalolén",
    "country": "CI",
    "reliability": 8,
    "reportRating": 0,
    "confidence": 1
  },
  {
    "id": "394a1695-d18d-4a1b-8574-1d93b5e9d837",
    "timestamp": 1745856711000,
    "latitude": -33.530318,
    "longitude": -70.76702,
    "type": "HAZARD",
    "subtype": "HAZARD_ON_SHOULDER_CAR_STOPPED",
    "street": "Los Diamantes",
    "city": "Maipú",
    "country": "CI",
    "reliability": 5,
    "reportRating": 3,
    "confidence": 0
  },
  {
    "id": "c595d11c-9bbf-4f2b-a7be-06da1bc051d7",
    "timestamp": 1743690902000,
    "latitude": -33.473797,
    "longitude": -70.748721,
    "type": "ROAD_CLOSED",
    "subtype": "ROAD_CLOSED_EVENT",
    "street": "Longitudinal",
    "city": "Maipú",
    "country": "CI",
    "reliability": 9,
    "reportRating": 5,
    "confidence": 1
  },
  {
    "id": "597a722b-4a0d-493e-b6b2-31210b7dd7bf",
    "timestamp": 1745326800000,
    "latitude": -33.444932,
    "longitude": -70.654177,
    "type": "HAZARD",
    "subtype": "HAZARD_ON_ROAD_LANE_CLOSED",
    "street": "Av. Libertador Bernardo O'Higgins",
    "city": "Santiago",
    "country": "CI",
    "reliability": 10,
    "reportRating": 0,
    "confidence": 5
  },
  {
    "id": "680ddf60-ec4b-403d-8640-163d9c490b81",
    "timestamp": 1744948780000,
    "latitude": -33.474695,
    "longitude": -70.748857,
    "type": "ROAD_CLOSED",
    "subtype": "ROAD_CLOSED_EVENT",
    "street": "Av. Hugo Bravo",
    "city": "Maipú",
    "country": "CI",
    "reliability": 6,
    "reportRating": 5,
    "confidence": 0
  },
  {
    "id": "a67406c0-d63a-4643-aff5-1583865eed71",
    "timestamp": 1745856671000,
    "latitude": -33.464033,
    "longitude": -70.762925,
    "type": "HAZARD",
    "subtype": "HAZARD_ON_ROAD_TRAFFIC_LIGHT_FAULT",
    "street": "Av. Américo Vespucio",
    "city": "Maipú",
    "country": "CI",
    "reliability": 5,
    "reportRating": 2,
    "confidence": 0
  },
  {
    "id": "daa3d01e-d198-45f0-9cf0-8d7aa236debe",
    "timestamp": 1745855660000,
    "latitude": -33.499111,
    "longitude": -70.792919,
    "type": "HAZARD",
    "subtype": "HAZARD_ON_SHOULDER_CAR_STOPPED",
    "street": "Ruta 78",
    "country": "CI",
    "reliability": 10,
    "reportRating": 3,
    "confidence": 5
  },
  {
    "id": "d4a7970f-73f5-4432-b3cf-19e66c01f907",
    "timestamp": 1745856119000,
    "latitude": -33.447322,
    "longitude": -70.66043,
    "type": "JAM",
    "subtype": "",
    "street": "Autopista Central",
    "country": "CI",
    "reliability": 5,
    "reportRating": 0,
    "confidence": 0
  },
  {
    "id": "020a907f-0aaf-43c5-9d23-f54c9e71f61a",
    "timestamp": 1745853929000,
    "latitude": -33.368181,
    "longitude": -70.678183,
    "type": "POLICE",
    "subtype": "",
    "street": "Av. Américo Vespucio",
    "city": "Huechuraba",
    "country": "CI",
    "reliability": 10,
    "reportRating": 0,
    "confidence": 2
  },
  {
    "id": "b3b02ecd-81f3-421c-b4a9-c3294605905f",
    "timestamp": 1745854323000,
    "latitude": -33.368307,
    "longitude": -70.677848,
    "type": "POLICE",
    "subtype": "POLICE_HIDING",
    "street": "Av. Américo Vespucio",
    "city": "Huechuraba",
    "country": "CI",
    "reliability": 10,
    "reportRating": 2,
    "confidence": 5
  },
  {
    "id": "65150e72-11c1-47fb-af9a-ed561eec206e",
    "timestamp": 1743690902000,
    "latitude": -33.470274,
    "longitude": -70.748114,
    "type": "ROAD_CLOSED",
    "subtype": "ROAD_CLOSED_EVENT",
    "street": "Longitudinal",
    "city": "Maipú",
    "country": "CI",
    "reliability": 10,
    "reportRating": 5,
    "confidence": 2
  },
  {
    "id": "52f66b1d-73fb-436f-8b07-f0e912be7df4",
    "timestamp": 1744904384000,
    "latitude": -33.44786,
    "longitude": -70.777215,
    "type": "ROAD_CLOSED",
    "subtype": "ROAD_CLOSED_EVENT",
    "street": "Puerto Madero",
    "city": "Pudahuel",
    "country": "CI",
    "reliability": 10,
    "reportRating": 5,
    "confidence": 4
  },
  {
    "id": "fa8a0e13-daf7-4036-b1ab-68db1ad6f210",
    "timestamp": 1745855146000,
    "latitude": -33.454942,
    "longitude": -70.678102,
    "type": "CHIT_CHAT",
    "subtype": "",
    "street": "Exposición",
    "city": "Santiago",
    "country": "CI",
    "reliability": 10,
    "reportRating": 2,
    "confidence": 3
  },
  {
    "id": "284232ce-945d-4f3a-a6f2-2adfafbd306a",
    "timestamp": 1745856090000,
    "latitude": -33.485906,
    "longitude": -70.69755,
    "type": "POLICE",
    "subtype": "",
    "street": "Museo Aeronáutico",
    "city": "Cerrillos",
    "country": "CI",
    "reliability": 5,
    "reportRating": 0,
    "confidence": 0
  },
  {
    "id": "bfb88752-8094-4eef-948f-45baa11afabf",
    "timestamp": 1745855121000,
    "latitude": -33.546754,
    "longitude": -70.708887,
    "type": "HAZARD",
    "subtype": "HAZARD_ON_ROAD",
    "street": "Av. General Velásquez",
    "city": "San Bernardo",
    "country": "CI",
    "reliability": 6,
    "reportRating": 3,
    "confidence": 0
  },
  {
    "id": "c4bbf4ab-a263-40de-aa50-e4de60f9dc2d",
    "timestamp": 1745856482000,
    "latitude": -33.414125,
    "longitude": -70.539885,
    "type": "POLICE",
    "subtype": "",
    "street": "Av. Padre Hurtado Sur",
    "city": "Las Condes",
    "country": "CI",
    "reliability": 6,
    "reportRating": 1,
    "confidence": 0
  },
  {
    "id": "077ee7d5-c978-487f-8605-30ce980be39a",
    "timestamp": 1736165132000,
    "latitude": -33.406206,
    "longitude": -70.745639,
    "type": "ROAD_CLOSED",
    "subtype": "ROAD_CLOSED_EVENT",
    "street": "Vicuña Mackenna",
    "city": "Renca",
    "country": "CI",
    "reliability": 10,
    "reportRating": 5,
    "confidence": 2
  },
  {
    "id": "dda611db-e8e6-4f84-80c0-156553407012",
    "timestamp": 1745849460000,
    "latitude": -33.433802,
    "longitude": -70.650329,
    "type": "POLICE",
    "subtype": "",
    "street": "21 de Mayo",
    "city": "Santiago",
    "country": "CI",
    "reliability": 10,
    "reportRating": 1,
    "confidence": 5
  },
  {
    "id": "7f5bba18-5841-43a5-a48f-4ce00e754bd1",
    "timestamp": 1719436134000,
    "latitude": -33.382259,
    "longitude": -70.682391,
    "type": "ROAD_CLOSED",
    "subtype": "ROAD_CLOSED_EVENT",
    "street": "Av. Independencia",
    "country": "CI",
    "reliability": 7,
    "reportRating": 5,
    "confidence": 0
  },
  {
    "id": "61991fb7-5768-42b7-adf8-54da440c57a8",
    "timestamp": 1743690902000,
    "latitude": -33.473295,
    "longitude": -70.748637,
    "type": "ROAD_CLOSED",
    "subtype": "ROAD_CLOSED_EVENT",
    "street": "Longitudinal",
    "city": "Maipú",
    "country": "CI",
    "reliability": 8,
    "reportRating": 5,
    "confidence": 1
  },
  {
    "id": "295f1eb3-f8c7-4b07-a5ed-c269cb34bc1f",
    "timestamp": 1745856512000,
    "latitude": -33.403401,
    "longitude": -70.595478,
    "type": "POLICE",
    "subtype": "",
    "street": "Av. Vitacura",
    "city": "Vitacura",
    "country": "CI",
    "reliability": 6,
    "reportRating": 0,
    "confidence": 0
  },
  {
    "id": "56dc3163-fcc5-4818-b1bc-9f856c91ab9b",
    "timestamp": 1745326800000,
    "latitude": -33.447374,
    "longitude": -70.666404,
    "type": "HAZARD",
    "subtype": "HAZARD_ON_ROAD_LANE_CLOSED",
    "street": "Av. Libertador Bernardo O'Higgins",
    "city": "Santiago",
    "country": "CI",
    "reliability": 10,
    "reportRating": 0,
    "confidence": 5
  },
  {
    "id": "5dcd26d6-823f-422e-ac19-f42fc9ffd767",
    "timestamp": 1745854577000,
    "latitude": -33.469732,
    "longitude": -70.574179,
    "type": "HAZARD",
    "subtype": "HAZARD_ON_SHOULDER_CAR_STOPPED",
    "street": "Av. Grecia",
    "city": "Peñalolén",
    "country": "CI",
    "reliability": 10,
    "reportRating": 0,
    "confidence": 5
  },
  {
    "id": "c38a9da0-7f98-4c63-a414-cda68d2572f4",
    "timestamp": 1739474743000,
    "latitude": -33.417704,
    "longitude": -70.604637,
    "type": "ROAD_CLOSED",
    "subtype": "ROAD_CLOSED_EVENT",
    "street": "Av. Vitacura > Oriente",
    "city": "Providencia",
    "country": "CI",
    "reliability": 10,
    "reportRating": 5,
    "confidence": 5
  },
  {
    "id": "d4974d77-31ba-4388-acca-e3d8205aa3e1",
    "timestamp": 1745856632000,
    "latitude": -33.362727,
    "longitude": -70.701946,
    "type": "JAM",
    "subtype": "JAM_STAND_STILL_TRAFFIC",
    "street": "Ruta 5 Norte",
    "country": "CI",
    "reliability": 5,
    "reportRating": 0,
    "confidence": 0
  },
  {
    "id": "d231aa0f-85cb-49a0-82fc-cc673bb47e2a",
    "timestamp": 1745854888000,
    "latitude": -33.473,
    "longitude": -70.643268,
    "type": "POLICE",
    "subtype": "",
    "street": "Franklin",
    "city": "Santiago",
    "country": "CI",
    "reliability": 10,
    "reportRating": 1,
    "confidence": 5
  },
  {
    "id": "c216b0e7-a6a3-4ee8-a54e-190206159ddf",
    "timestamp": 1717680214000,
    "latitude": -33.388947,
    "longitude": -70.677101,
    "type": "ROAD_CLOSED",
    "subtype": "ROAD_CLOSED_EVENT",
    "street": "Av. Independencia",
    "city": "Conchalí",
    "country": "CI",
    "reliability": 6,
    "reportRating": 5,
    "confidence": 0
  },
  {
    "id": "eb069df3-a4ab-4198-b019-c95320e9d802",
    "timestamp": 1745856287000,
    "latitude": -33.561489,
    "longitude": -70.63822,
    "type": "POLICE",
    "subtype": "",
    "street": "Pedro Aguirre Cerda",
    "city": "La Pintana",
    "country": "CI",
    "reliability": 6,
    "reportRating": 0,
    "confidence": 0
  },
  {
    "id": "74e4194b-b0b6-4d50-ba34-075366f4647d",
    "timestamp": 1745326800000,
    "latitude": -33.446029,
    "longitude": -70.661116,
    "type": "HAZARD",
    "subtype": "HAZARD_ON_ROAD_LANE_CLOSED",
    "street": "Av. Libertador Bernardo O'Higgins",
    "city": "Santiago",
    "country": "CI",
    "reliability": 10,
    "reportRating": 0,
    "confidence": 5
  },
  {
    "id": "e305b756-f3c5-4cc2-a2d8-58e4bb6e82da",
    "timestamp": 1745856415000,
    "latitude": -33.457889,
    "longitude": -70.648308,
    "type": "POLICE",
    "subtype": "POLICE_HIDING",
    "street": "Porvenir",
    "city": "Santiago",
    "country": "CI",
    "reliability": 6,
    "reportRating": 0,
    "confidence": 0
  },
  {
    "id": "38e9bbc4-8468-4291-b886-04471f093d1d",
    "timestamp": 1717680103000,
    "latitude": -33.383685,
    "longitude": -70.681238,
    "type": "ROAD_CLOSED",
    "subtype": "ROAD_CLOSED_EVENT",
    "street": "Av. Independencia",
    "country": "CI",
    "reliability": 10,
    "reportRating": 5,
    "confidence": 5
  },
  {
    "id": "656c1bb7-09bc-453c-b6f9-d957d95642e2",
    "timestamp": 1745856668000,
    "latitude": -33.415548,
    "longitude": -70.666323,
    "type": "HAZARD",
    "subtype": "HAZARD_ON_ROAD_CONSTRUCTION",
    "street": "Av. Domingo Santa María",
    "city": "Independencia",
    "country": "CI",
    "reliability": 6,
    "reportRating": 4,
    "confidence": 0
  },
  {
    "id": "12792146-18c9-4ca9-857e-9daea29a428c",
    "timestamp": 1745326800000,
    "latitude": -33.446785,
    "longitude": -70.664083,
    "type": "HAZARD",
    "subtype": "HAZARD_ON_ROAD_LANE_CLOSED",
    "street": "Av. Libertador Bernardo O'Higgins",
    "city": "Santiago",
    "country": "CI",
    "reliability": 10,
    "reportRating": 0,
    "confidence": 5
  },
  {
    "id": "fef0d673-bd25-4dbd-8c80-a5586877e434",
    "timestamp": 1745855742000,
    "latitude": -33.455306,
    "longitude": -70.677403,
    "type": "POLICE",
    "subtype": "",
    "street": "San Vicente",
    "city": "Santiago",
    "country": "CI",
    "reliability": 6,
    "reportRating": 0,
    "confidence": 0
  },
  {
    "id": "9d02ef4e-57ef-40b8-9e1b-0748e9489516",
    "timestamp": 1745856603000,
    "latitude": -33.375425,
    "longitude": -70.75116,
    "type": "JAM",
    "subtype": "JAM_HEAVY_TRAFFIC",
    "street": "Ruta G-16",
    "country": "CI",
    "reliability": 5,
    "reportRating": 1,
    "confidence": 0
  },
  {
    "id": "d59247cf-04fd-459f-921d-48cb28ff3e00",
    "timestamp": 1745855139000,
    "latitude": -33.478758,
    "longitude": -70.647221,
    "type": "POLICE",
    "subtype": "",
    "street": "Rivas",
    "city": "San Miguel",
    "country": "CI",
    "reliability": 8,
    "reportRating": 1,
    "confidence": 1
  },
  {
    "id": "bc13336f-d46c-498b-99e9-67fc19c5c3d6",
    "timestamp": 1745856735000,
    "latitude": -33.461588,
    "longitude": -70.647128,
    "type": "POLICE",
    "subtype": "",
    "street": "Arturo Prat",
    "city": "Santiago",
    "country": "CI",
    "reliability": 5,
    "reportRating": 1,
    "confidence": 0
  },
  {
    "id": "4e400146-56db-4f4f-a867-e455948bd973",
    "timestamp": 1745853681000,
    "latitude": -33.524966,
    "longitude": -70.69689,
    "type": "ROAD_CLOSED",
    "subtype": "",
    "street": "Casagrande",
    "city": "Lo Espejo",
    "country": "CI",
    "reliability": 5,
    "reportRating": 3,
    "confidence": 0
  },
  {
    "id": "e528a298-5fae-47fb-9a18-212fdae0642f",
    "timestamp": 1745854691000,
    "latitude": -33.32924,
    "longitude": -70.762135,
    "type": "HAZARD",
    "subtype": "HAZARD_ON_ROAD_CONSTRUCTION",
    "street": "La Montaña Sur",
    "city": "Valle Grande",
    "country": "CI",
    "reliability": 10,
    "reportRating": 0,
    "confidence": 3
  },
  {
    "id": "bf8f2e8b-a140-4060-aec1-af59aa5aa6d4",
    "timestamp": 1743596805000,
    "latitude": -33.474319,
    "longitude": -70.758188,
    "type": "ROAD_CLOSED",
    "subtype": "ROAD_CLOSED_EVENT",
    "street": "Av. Hugo Bravo",
    "city": "Maipú",
    "country": "CI",
    "reliability": 10,
    "reportRating": 5,
    "confidence": 5
  },
  {
    "id": "ed535806-8e8f-4982-bbbe-f9eba0233e12",
    "timestamp": 1745855681000,
    "latitude": -33.476837,
    "longitude": -70.654007,
    "type": "CHIT_CHAT",
    "subtype": "",
    "street": "San Ignacio de Loyola",
    "city": "Santiago",
    "country": "CI",
    "reliability": 10,
    "reportRating": 3,
    "confidence": 2
  },
  {
    "id": "6523662b-7dfd-45f1-8d0d-f9fa6ede7222",
    "timestamp": 1745856707000,
    "latitude": -33.367379,
    "longitude": -70.680334,
    "type": "POLICE",
    "subtype": "",
    "street": "Av. Américo Vespucio",
    "city": "Huechuraba",
    "country": "CI",
    "reliability": 5,
    "reportRating": 0,
    "confidence": 0
  },
  {
    "id": "4d42d5fe-800f-4386-8966-8dd8030ab37b",
    "timestamp": 1745856589000,
    "latitude": -33.539971,
    "longitude": -70.650984,
    "type": "JAM",
    "subtype": "JAM_STAND_STILL_TRAFFIC",
    "street": "Autopista Vespucio Sur",
    "country": "CI",
    "reliability": 5,
    "reportRating": 3,
    "confidence": 0
  },
  {
    "id": "3409f98e-fbf8-41f6-a670-3f85f44b9e0e",
    "timestamp": 1745854889000,
    "latitude": -33.361275,
    "longitude": -70.702607,
    "type": "JAM",
    "subtype": "JAM_HEAVY_TRAFFIC",
    "street": "Ruta 5 Norte",
    "country": "CI",
    "reliability": 5,
    "reportRating": 3,
    "confidence": 0
  },
  {
    "id": "730e9cbc-dc8e-441c-98a1-c50b88b5eef2",
    "timestamp": 1744949116000,
    "latitude": -33.471579,
    "longitude": -70.750208,
    "type": "ROAD_CLOSED",
    "subtype": "ROAD_CLOSED_EVENT",
    "street": "Aves del Paraíso",
    "city": "Maipú",
    "country": "CI",
    "reliability": 6,
    "reportRating": 5,
    "confidence": 0
  },
  {
    "id": "c41e890b-6810-434a-8894-42a8a58185e4",
    "timestamp": 1744948884000,
    "latitude": -33.478863,
    "longitude": -70.749383,
    "type": "ROAD_CLOSED",
    "subtype": "ROAD_CLOSED_EVENT",
    "street": "Longitudinal",
    "city": "Maipú",
    "country": "CI",
    "reliability": 6,
    "reportRating": 5,
    "confidence": 0
  },
  {
    "id": "a7384bc7-1698-43ef-a96b-e83d407921b8",
    "timestamp": 1745855226000,
    "latitude": -33.526587,
    "longitude": -70.661524,
    "type": "HAZARD",
    "subtype": "HAZARD_ON_ROAD_CONSTRUCTION",
    "street": "Gran Avenida José Miguel Carrera",
    "city": "La Cisterna",
    "country": "CI",
    "reliability": 10,
    "reportRating": 1,
    "confidence": 5
  },
  {
    "id": "182acc4d-a402-4c46-b962-58c066fca658",
    "timestamp": 1717680214000,
    "latitude": -33.388526,
    "longitude": -70.677877,
    "type": "ROAD_CLOSED",
    "subtype": "ROAD_CLOSED_EVENT",
    "street": "Av. Independencia",
    "city": "Conchalí",
    "country": "CI",
    "reliability": 10,
    "reportRating": 5,
    "confidence": 5
  },
  {
    "id": "dc121527-22f7-49d2-aff3-f5caaaeca9b4",
    "timestamp": 1745855970000,
    "latitude": -33.44115,
    "longitude": -70.67593,
    "type": "POLICE",
    "subtype": "",
    "street": "Compañía de Jesús",
    "city": "Santiago",
    "country": "CI",
    "reliability": 10,
    "reportRating": 0,
    "confidence": 2
  },
  {
    "id": "d267ec31-b7ef-4d69-bb0a-9f5f9991c0e7",
    "timestamp": 1745856360000,
    "latitude": -33.565628,
    "longitude": -70.547389,
    "type": "HAZARD",
    "subtype": "HAZARD_ON_ROAD",
    "street": "Camino del Agua",
    "city": "Puente Alto",
    "country": "CI",
    "reliability": 5,
    "reportRating": 0,
    "confidence": 0
  },
  {
    "id": "2aeb7b04-f80c-4156-871b-0bc4b88275ae",
    "timestamp": 1745326800000,
    "latitude": -33.447463,
    "longitude": -70.664854,
    "type": "HAZARD",
    "subtype": "HAZARD_ON_ROAD_LANE_CLOSED",
    "street": "Av. Libertador Bernardo O'Higgins",
    "city": "Santiago",
    "country": "CI",
    "reliability": 10,
    "reportRating": 0,
    "confidence": 5
  },
  {
    "id": "a882fc55-8ef8-493e-bb64-1c4be7a1102d",
    "timestamp": 1731611199000,
    "latitude": -33.562795,
    "longitude": -70.807189,
    "type": "ROAD_CLOSED",
    "subtype": "ROAD_CLOSED_EVENT",
    "street": "Av. Santa Leonor",
    "city": "Padre Hurtado",
    "country": "CI",
    "reliability": 10,
    "reportRating": 5,
    "confidence": 5
  },
  {
    "id": "a1634e0d-cd12-48e7-9a16-b3eae00d03a5",
    "timestamp": 1745853515000,
    "latitude": -33.434289,
    "longitude": -70.668951,
    "type": "HAZARD",
    "subtype": "HAZARD_ON_ROAD_CONSTRUCTION",
    "street": "Av. Ricardo Cumming",
    "city": "Santiago",
    "country": "CI",
    "reliability": 10,
    "reportRating": 4,
    "confidence": 5
  },
  {
    "id": "eb1e91ac-51f0-41e0-be32-d47a94407e3c",
    "timestamp": 1737348297000,
    "latitude": -33.433864,
    "longitude": -70.721805,
    "type": "ROAD_CLOSED",
    "subtype": "ROAD_CLOSED_EVENT",
    "street": "Vicuña Rozas",
    "city": "Cerro Navia",
    "country": "CI",
    "reliability": 6,
    "reportRating": 5,
    "confidence": 0
  },
  {
    "id": "a5b4880b-1eeb-4669-a045-00d17ae6e517",
    "timestamp": 1745855726000,
    "latitude": -33.420158,
    "longitude": -70.608508,
    "type": "CHIT_CHAT",
    "subtype": "",
    "street": "Av. Suecia",
    "city": "Providencia",
    "country": "CI",
    "reliability": 10,
    "reportRating": 3,
    "confidence": 3
  },
  {
    "id": "5b6f0c4a-4ad6-4d24-aa55-623b31a40341",
    "timestamp": 1745326800000,
    "latitude": -33.446181,
    "longitude": -70.66173,
    "type": "HAZARD",
    "subtype": "HAZARD_ON_ROAD_LANE_CLOSED",
    "street": "Av. Libertador Bernardo O'Higgins",
    "city": "Santiago",
    "country": "CI",
    "reliability": 10,
    "reportRating": 0,
    "confidence": 5
  },
  {
    "id": "5de248a1-fbd5-475b-b0aa-7101d5d1c4f9",
    "timestamp": 1737348297000,
    "latitude": -33.432637,
    "longitude": -70.727491,
    "type": "ROAD_CLOSED",
    "subtype": "ROAD_CLOSED_EVENT",
    "street": "Vicuña Rozas",
    "city": "Cerro Navia",
    "country": "CI",
    "reliability": 6,
    "reportRating": 5,
    "confidence": 0
  },
  {
    "id": "43dab832-c497-4f05-bfae-9306565abfc8",
    "timestamp": 1745853152000,
    "latitude": -33.445179,
    "longitude": -70.632817,
    "type": "HAZARD",
    "subtype": "HAZARD_ON_SHOULDER_CAR_STOPPED",
    "street": "Av. Vicuña Mackenna",
    "city": "Providencia",
    "country": "CI",
    "reliability": 10,
    "reportRating": 2,
    "confidence": 5
  },
  {
    "id": "64332b04-6557-4e8f-8256-031db79efb55",
    "timestamp": 1745856023000,
    "latitude": -33.579716,
    "longitude": -70.560234,
    "type": "POLICE",
    "subtype": "",
    "street": "Av. El Peñón",
    "city": "Puente Alto",
    "country": "CI",
    "reliability": 9,
    "reportRating": 0,
    "confidence": 2
  },
  {
    "id": "add8f68e-eddd-47e0-8e85-abc8a320329c",
    "timestamp": 1745326800000,
    "latitude": -33.446398,
    "longitude": -70.66256,
    "type": "HAZARD",
    "subtype": "HAZARD_ON_ROAD_LANE_CLOSED",
    "street": "Av. Libertador Bernardo O'Higgins",
    "city": "Santiago",
    "country": "CI",
    "reliability": 10,
    "reportRating": 0,
    "confidence": 5
  },
  {
    "id": "9983f94f-498e-4e40-8330-07e8ee0a7e79",
    "timestamp": 1745856318000,
    "latitude": -33.517935,
    "longitude": -70.594235,
    "type": "HAZARD",
    "subtype": "HAZARD_ON_ROAD",
    "street": "Froilán Roa",
    "city": "La Florida",
    "country": "CI",
    "reliability": 6,
    "reportRating": 3,
    "confidence": 0
  },
  {
    "id": "32e3db15-584c-4845-bfcb-7d06e9271788",
    "timestamp": 1745856421000,
    "latitude": -33.509534,
    "longitude": -70.570906,
    "type": "HAZARD",
    "subtype": "HAZARD_ON_ROAD_POT_HOLE",
    "street": "Los Matriceros",
    "city": "Peñalolén",
    "country": "CI",
    "reliability": 5,
    "reportRating": 3,
    "confidence": 0
  },
  {
    "id": "5e7ae77b-08b2-40dc-b9be-9f2f7c67da52",
    "timestamp": 1743596471000,
    "latitude": -33.437467,
    "longitude": -70.632905,
    "type": "ROAD_CLOSED",
    "subtype": "ROAD_CLOSED_EVENT",
    "street": "General Bustamante",
    "city": "Providencia",
    "country": "CI",
    "reliability": 10,
    "reportRating": 5,
    "confidence": 5
  },
  {
    "id": "08dd7b24-9d20-40c8-8527-2b088b7940f3",
    "timestamp": 1745856529000,
    "latitude": -33.37104,
    "longitude": -70.670339,
    "type": "HAZARD",
    "subtype": "HAZARD_ON_ROAD_TRAFFIC_LIGHT_FAULT",
    "street": "Av. Américo Vespucio",
    "city": "Huechuraba",
    "country": "CI",
    "reliability": 5,
    "reportRating": 3,
    "confidence": 0
  },
  {
    "id": "b204e7b8-a3a3-4f87-b3f5-e5d51f4ec748",
    "timestamp": 1745855758000,
    "latitude": -33.425131,
    "longitude": -70.653542,
    "type": "POLICE",
    "subtype": "",
    "street": "Echeverría",
    "city": "Independencia",
    "country": "CI",
    "reliability": 10,
    "reportRating": 3,
    "confidence": 5
  },
  {
    "id": "dffadf98-4e33-44e7-a582-c2aae430e101",
    "timestamp": 1743690902000,
    "latitude": -33.470415,
    "longitude": -70.748132,
    "type": "ROAD_CLOSED",
    "subtype": "ROAD_CLOSED_EVENT",
    "street": "Longitudinal",
    "city": "Maipú",
    "country": "CI",
    "reliability": 6,
    "reportRating": 5,
    "confidence": 0
  },
  {
    "id": "98bbc39e-5b76-4031-9f16-eb7bf9f73350",
    "timestamp": 1745855704000,
    "latitude": -33.475302,
    "longitude": -70.643672,
    "type": "HAZARD",
    "subtype": "HAZARD_ON_ROAD_TRAFFIC_LIGHT_FAULT",
    "street": "San Francisco",
    "city": "Santiago",
    "country": "CI",
    "reliability": 6,
    "reportRating": 3,
    "confidence": 0
  },
  {
    "id": "177c0e0a-58b6-44cc-a2b7-820abc6167a8",
    "timestamp": 1745856006000,
    "latitude": -33.443969,
    "longitude": -70.660696,
    "type": "JAM",
    "subtype": "JAM_STAND_STILL_TRAFFIC",
    "street": "Autopista Central",
    "country": "CI",
    "reliability": 7,
    "reportRating": 1,
    "confidence": 1
  },
  {
    "id": "f4347baf-e623-4127-9fe7-a25446f40adc",
    "timestamp": 1745856108000,
    "latitude": -33.485816,
    "longitude": -70.697698,
    "type": "POLICE",
    "subtype": "",
    "street": "Av. Pedro Aguirre Cerda",
    "city": "Cerrillos",
    "country": "CI",
    "reliability": 10,
    "reportRating": 0,
    "confidence": 1
  },
  {
    "id": "21fd99eb-e274-4703-a7ab-13d27d35da2f",
    "timestamp": 1745856387000,
    "latitude": -33.424919,
    "longitude": -70.650871,
    "type": "POLICE",
    "subtype": "",
    "street": "Juárez Larga",
    "city": "Recoleta",
    "country": "CI",
    "reliability": 10,
    "reportRating": 0,
    "confidence": 1
  },
  {
    "id": "6d3d6295-cf0f-4233-90a2-4ac9aa1e13bc",
    "timestamp": 1745855814000,
    "latitude": -33.588879,
    "longitude": -70.642646,
    "type": "HAZARD",
    "subtype": "HAZARD_ON_ROAD_POT_HOLE",
    "street": "Tucapel",
    "city": "La Pintana",
    "country": "CI",
    "reliability": 5,
    "reportRating": 2,
    "confidence": 0
  },
  {
    "id": "0fa9dbd5-39df-4b64-8842-31c3c4da9125",
    "timestamp": 1744904436000,
    "latitude": -33.450796,
    "longitude": -70.781418,
    "type": "ROAD_CLOSED",
    "subtype": "ROAD_CLOSED_EVENT",
    "street": "Puerto Madero",
    "city": "Pudahuel",
    "country": "CI",
    "reliability": 6,
    "reportRating": 5,
    "confidence": 0
  },
  {
    "id": "37e99c4f-e024-4eb4-844e-35ff937ed8ee",
    "timestamp": 1737348297000,
    "latitude": -33.433054,
    "longitude": -70.725365,
    "type": "ROAD_CLOSED",
    "subtype": "ROAD_CLOSED_EVENT",
    "street": "Vicuña Rozas",
    "city": "Cerro Navia",
    "country": "CI",
    "reliability": 9,
    "reportRating": 5,
    "confidence": 1
  },
  {
    "id": "a26cf007-14ca-45b0-a733-25f895ce7a18",
    "timestamp": 1745855610000,
    "latitude": -33.429298,
    "longitude": -70.620095,
    "type": "HAZARD",
    "subtype": "HAZARD_ON_SHOULDER_CAR_STOPPED",
    "street": "Manuel Montt",
    "city": "Providencia",
    "country": "CI",
    "reliability": 5,
    "reportRating": 5,
    "confidence": 0
  },
  {
    "id": "1f7591ff-c364-4acb-9e3f-d32ed18fe3ba",
    "timestamp": 1745856341000,
    "latitude": -33.438046,
    "longitude": -70.605883,
    "type": "JAM",
    "subtype": "",
    "street": "Av. Francisco Bilbao",
    "city": "Providencia",
    "country": "CI",
    "reliability": 5,
    "reportRating": 0,
    "confidence": 0
  },
  {
    "id": "1a91d491-971b-4d14-a1e4-4d8f4f5de078",
    "timestamp": 1745855435000,
    "latitude": -33.575755,
    "longitude": -70.579512,
    "type": "JAM",
    "subtype": "",
    "street": "Av. Troncal San Francisco",
    "city": "Puente Alto",
    "country": "CI",
    "reliability": 5,
    "reportRating": 2,
    "confidence": 0
  },
  {
    "id": "1c36da69-ed31-4625-9299-ad34807e6b9a",
    "timestamp": 1745855425000,
    "latitude": -33.427303,
    "longitude": -70.616763,
    "type": "JAM",
    "subtype": "JAM_HEAVY_TRAFFIC",
    "street": "Av. Providencia",
    "city": "Providencia",
    "country": "CI",
    "reliability": 5,
    "reportRating": 5,
    "confidence": 0
  },
  {
    "id": "44e48cd2-96e0-4bab-baca-3b6a366145f2",
    "timestamp": 1745856698000,
    "latitude": -33.409889,
    "longitude": -70.679562,
    "type": "POLICE",
    "subtype": "",
    "street": "Av. Presidente Eduardo Frei Montalva",
    "city": "Independencia",
    "country": "CI",
    "reliability": 6,
    "reportRating": 0,
    "confidence": 0
  },
  {
    "id": "67e3b5f2-1db9-4d60-ba8e-6e2bc852aff5",
    "timestamp": 1745856169000,
    "latitude": -33.370776,
    "longitude": -70.738394,
    "type": "JAM",
    "subtype": "JAM_STAND_STILL_TRAFFIC",
    "street": "Av. General San Martín",
    "city": "Quilicura",
    "country": "CI",
    "reliability": 5,
    "reportRating": 3,
    "confidence": 0
  },
  {
    "id": "1c3f5398-6d06-4359-8b9a-b5625cbe7fbb",
    "timestamp": 1745852615000,
    "latitude": -33.595697,
    "longitude": -70.590636,
    "type": "HAZARD",
    "subtype": "HAZARD_ON_SHOULDER_CAR_STOPPED",
    "street": "Av. Jorge Ross Ossa",
    "city": "Puente Alto",
    "country": "CI",
    "reliability": 10,
    "reportRating": 2,
    "confidence": 5
  },
  {
    "id": "02203a4a-618b-4a96-b418-16c7dc40bcd8",
    "timestamp": 1745326800000,
    "latitude": -33.445034,
    "longitude": -70.65681,
    "type": "HAZARD",
    "subtype": "HAZARD_ON_ROAD_LANE_CLOSED",
    "street": "Av. Libertador Bernardo O'Higgins",
    "city": "Santiago",
    "country": "CI",
    "reliability": 10,
    "reportRating": 0,
    "confidence": 5
  },
  {
    "id": "9f078c9b-307f-4bb9-a487-da15cdaa29d2",
    "timestamp": 1745854462000,
    "latitude": -33.422438,
    "longitude": -70.788679,
    "type": "ROAD_CLOSED",
    "subtype": "ROAD_CLOSED_EVENT",
    "street": "Av. Américo Vespucio",
    "city": "Pudahuel",
    "country": "CI",
    "reliability": 6,
    "reportRating": 0,
    "confidence": 0
  },
  {
    "id": "c662cbd0-719e-45d2-9687-294671831b60",
    "timestamp": 1745326800000,
    "latitude": -33.444497,
    "longitude": -70.654319,
    "type": "HAZARD",
    "subtype": "HAZARD_ON_ROAD_LANE_CLOSED",
    "street": "Av. Libertador Bernardo O'Higgins",
    "city": "Santiago",
    "country": "CI",
    "reliability": 10,
    "reportRating": 0,
    "confidence": 5
  },
  {
    "id": "2c7b1db0-3bcc-4592-ba18-214fbe7c9ab1",
    "timestamp": 1745326800000,
    "latitude": -33.447909,
    "longitude": -70.667402,
    "type": "HAZARD",
    "subtype": "HAZARD_ON_ROAD_LANE_CLOSED",
    "street": "Av. Libertador Bernardo O'Higgins",
    "city": "Santiago",
    "country": "CI",
    "reliability": 10,
    "reportRating": 0,
    "confidence": 5
  },
  {
    "id": "8f90b9a0-01fe-4e92-98c7-62a297cf5f44",
    "timestamp": 1743690902000,
    "latitude": -33.474075,
    "longitude": -70.748767,
    "type": "ROAD_CLOSED",
    "subtype": "ROAD_CLOSED_EVENT",
    "street": "Longitudinal",
    "city": "Maipú",
    "country": "CI",
    "reliability": 10,
    "reportRating": 5,
    "confidence": 2
  },
  {
    "id": "bda065ca-104c-43fb-baf1-179f16ce8086",
    "timestamp": 1745856535000,
    "latitude": -33.393819,
    "longitude": -70.589351,
    "type": "HAZARD",
    "subtype": "HAZARD_ON_ROAD_CONSTRUCTION",
    "street": "Candelaria Goyenechea",
    "city": "Vitacura",
    "country": "CI",
    "reliability": 7,
    "reportRating": 2,
    "confidence": 1
  },
  {
    "id": "6b72c045-697b-4b17-98eb-38edeec673c7",
    "timestamp": 1745852329000,
    "latitude": -33.45243,
    "longitude": -70.694126,
    "type": "POLICE",
    "subtype": "",
    "street": "Coronel Godoy",
    "city": "Estación Central",
    "country": "CI",
    "reliability": 10,
    "reportRating": 0,
    "confidence": 5
  },
  {
    "id": "7ec0541c-ab19-48c4-b3f1-649fc8c66b7d",
    "timestamp": 1745855836000,
    "latitude": -33.400146,
    "longitude": -70.569458,
    "type": "HAZARD",
    "subtype": "HAZARD_ON_ROAD",
    "street": "Cerro Colorado",
    "city": "Las Condes",
    "country": "CI",
    "reliability": 5,
    "reportRating": 0,
    "confidence": 0
  },
  {
    "id": "4267f0f0-9929-4ad3-b2dd-a531382d4a71",
    "timestamp": 1745856401000,
    "latitude": -33.376163,
    "longitude": -70.656875,
    "type": "HAZARD",
    "subtype": "HAZARD_ON_ROAD_TRAFFIC_LIGHT_FAULT",
    "street": "Av. Guanaco",
    "city": "Recoleta",
    "country": "CI",
    "reliability": 5,
    "reportRating": 0,
    "confidence": 0
  },
  {
    "id": "a77266bf-95a5-4e94-bdb1-21b7b00835c5",
    "timestamp": 1745855456000,
    "latitude": -33.38982,
    "longitude": -70.548109,
    "type": "JAM",
    "subtype": "JAM_STAND_STILL_TRAFFIC",
    "street": "Av. Padre Hurtado Norte",
    "city": "Las Condes",
    "country": "CI",
    "reliability": 5,
    "reportRating": 0,
    "confidence": 0
  },
  {
    "id": "2491e99e-1c96-4409-819b-3b96b803f5fb",
    "timestamp": 1745856517000,
    "latitude": -33.417416,
    "longitude": -70.656625,
    "type": "HAZARD",
    "subtype": "HAZARD_ON_ROAD",
    "street": "Av. Independencia",
    "city": "Independencia",
    "country": "CI",
    "reliability": 7,
    "reportRating": 3,
    "confidence": 0
  },
  {
    "id": "5ddb3193-efa6-4f67-82bf-450be69ed992",
    "timestamp": 1745326800000,
    "latitude": -33.44569,
    "longitude": -70.659719,
    "type": "HAZARD",
    "subtype": "HAZARD_ON_ROAD_LANE_CLOSED",
    "street": "Av. Libertador Bernardo O'Higgins",
    "city": "Santiago",
    "country": "CI",
    "reliability": 10,
    "reportRating": 0,
    "confidence": 5
  },
  {
    "id": "8c111691-b22c-425b-bf0d-076288402732",
    "timestamp": 1734447547000,
    "latitude": -33.396267,
    "longitude": -70.671402,
    "type": "ROAD_CLOSED",
    "subtype": "ROAD_CLOSED_EVENT",
    "street": "Negrete",
    "city": "Conchalí",
    "country": "CI",
    "reliability": 10,
    "reportRating": 5,
    "confidence": 5
  },
  {
    "id": "7aa70c5c-e484-4356-8ea6-281d8644589f",
    "timestamp": 1745326800000,
    "latitude": -33.446707,
    "longitude": -70.663774,
    "type": "HAZARD",
    "subtype": "HAZARD_ON_ROAD_LANE_CLOSED",
    "street": "Av. Libertador Bernardo O'Higgins",
    "city": "Santiago",
    "country": "CI",
    "reliability": 10,
    "reportRating": 0,
    "confidence": 5
  },
  {
    "id": "94743fa1-4f18-40fb-ad67-589210d49e5e",
    "timestamp": 1745855393000,
    "latitude": -33.539662,
    "longitude": -70.774793,
    "type": "JAM",
    "subtype": "JAM_STAND_STILL_TRAFFIC",
    "street": "Ruta 76 / Camino San Alberto Hurtado",
    "country": "CI",
    "reliability": 5,
    "reportRating": 3,
    "confidence": 0
  },
  {
    "id": "6e47e6a2-04ef-4d9e-825b-d3f716570201",
    "timestamp": 1745854939000,
    "latitude": -33.317841,
    "longitude": -70.71114,
    "type": "HAZARD",
    "subtype": "HAZARD_ON_ROAD_CONSTRUCTION",
    "street": "Caupolicán",
    "city": "Quilicura",
    "country": "CI",
    "reliability": 10,
    "reportRating": 0,
    "confidence": 5
  },
  {
    "id": "16930b64-0095-4644-8483-1401f112b65b",
    "timestamp": 1745326800000,
    "latitude": -33.446548,
    "longitude": -70.663149,
    "type": "HAZARD",
    "subtype": "HAZARD_ON_ROAD_LANE_CLOSED",
    "street": "Av. Libertador Bernardo O'Higgins",
    "city": "Santiago",
    "country": "CI",
    "reliability": 10,
    "reportRating": 0,
    "confidence": 5
  },
  {
    "id": "9cea8ca6-899e-4f15-ac09-dcfc185c0405",
    "timestamp": 1731611199000,
    "latitude": -33.560919,
    "longitude": -70.809294,
    "type": "ROAD_CLOSED",
    "subtype": "ROAD_CLOSED_EVENT",
    "street": "Av. Santa Leonor",
    "city": "Padre Hurtado",
    "country": "CI",
    "reliability": 10,
    "reportRating": 5,
    "confidence": 5
  },
  {
    "id": "9149bbee-8b64-45a6-9a4d-17752d2d9caa",
    "timestamp": 1745854069000,
    "latitude": -33.477134,
    "longitude": -70.682021,
    "type": "JAM",
    "subtype": "JAM_HEAVY_TRAFFIC",
    "street": "Salida > General Velázquez / Buzeta",
    "country": "CI",
    "reliability": 6,
    "reportRating": 1,
    "confidence": 0
  },
  {
    "id": "2189e81e-40f3-4c5b-a39a-e53594e17653",
    "timestamp": 1745856596000,
    "latitude": -33.464086,
    "longitude": -70.760558,
    "type": "JAM",
    "subtype": "",
    "street": "Av. Los Mares",
    "city": "Pudahuel",
    "country": "CI",
    "reliability": 5,
    "reportRating": 1,
    "confidence": 0
  },
  {
    "id": "71fcf4c5-7beb-4ca4-8481-4a72531bc670",
    "timestamp": 1745856434000,
    "latitude": -33.448386,
    "longitude": -70.639316,
    "type": "CHIT_CHAT",
    "subtype": "",
    "street": "Lira",
    "city": "Santiago",
    "country": "CI",
    "reliability": 5,
    "reportRating": 3,
    "confidence": 0
  },
  {
    "id": "d8d933dc-1123-443b-886f-bc694577cfa7",
    "timestamp": 1745854623000,
    "latitude": -33.444195,
    "longitude": -70.655732,
    "type": "POLICE",
    "subtype": "",
    "street": "Hermanos Amunátegui",
    "city": "Santiago",
    "country": "CI",
    "reliability": 10,
    "reportRating": 3,
    "confidence": 5
  },
  {
    "id": "cd1f3d1c-d2ea-4dfb-ac9d-3e94aff8f4e8",
    "timestamp": 1745856718000,
    "latitude": -33.52949,
    "longitude": -70.595348,
    "type": "HAZARD",
    "subtype": "HAZARD_ON_ROAD_CONSTRUCTION",
    "street": "Av. Vicuña Mackenna",
    "city": "La Florida",
    "country": "CI",
    "reliability": 5,
    "reportRating": 1,
    "confidence": 0
  },
  {
    "id": "4dd67e02-3cf3-4544-bb86-97bf7790fc64",
    "timestamp": 1745853767000,
    "latitude": -33.409393,
    "longitude": -70.606011,
    "type": "ROAD_CLOSED",
    "subtype": "ROAD_CLOSED_EVENT",
    "street": "Salida Los Conquistadores",
    "country": "CI",
    "reliability": 6,
    "reportRating": 0,
    "confidence": 0
  },
  {
    "id": "bc7bed42-b63d-408f-88f3-524289bf8d35",
    "timestamp": 1717680414000,
    "latitude": -33.392827,
    "longitude": -70.673901,
    "type": "ROAD_CLOSED",
    "subtype": "ROAD_CLOSED_EVENT",
    "street": "Av. Independencia",
    "city": "Conchalí",
    "country": "CI",
    "reliability": 7,
    "reportRating": 5,
    "confidence": 0
  },
  {
    "id": "8edf0b7a-a466-408e-87db-492afff8c219",
    "timestamp": 1745326800000,
    "latitude": -33.446675,
    "longitude": -70.663651,
    "type": "HAZARD",
    "subtype": "HAZARD_ON_ROAD_LANE_CLOSED",
    "street": "Av. Libertador Bernardo O'Higgins",
    "city": "Santiago",
    "country": "CI",
    "reliability": 10,
    "reportRating": 0,
    "confidence": 5
  },
  {
    "id": "3ddfb5a1-31d8-4350-ac91-e0b1a9d316ad",
    "timestamp": 1744904436000,
    "latitude": -33.450796,
    "longitude": -70.781418,
    "type": "ROAD_CLOSED",
    "subtype": "ROAD_CLOSED_EVENT",
    "street": "Puerto Madero",
    "city": "Pudahuel",
    "country": "CI",
    "reliability": 7,
    "reportRating": 5,
    "confidence": 0
  },
  {
    "id": "b5cccfb1-1507-4eb0-80aa-e36ccf33166a",
    "timestamp": 1745855364000,
    "latitude": -33.432344,
    "longitude": -70.58427,
    "type": "JAM",
    "subtype": "JAM_STAND_STILL_TRAFFIC",
    "street": "Av. Tobalaba",
    "city": "Providencia",
    "country": "CI",
    "reliability": 5,
    "reportRating": 4,
    "confidence": 0
  },
  {
    "id": "700b2764-a320-49e7-b79b-71af8fa0348e",
    "timestamp": 1745851881000,
    "latitude": -33.394295,
    "longitude": -70.769395,
    "type": "HAZARD",
    "subtype": "HAZARD_ON_SHOULDER_CAR_STOPPED",
    "street": "Av. Miraflores",
    "city": "Pudahuel",
    "country": "CI",
    "reliability": 10,
    "reportRating": 3,
    "confidence": 5
  },
  {
    "id": "e1d076e1-f6cb-4402-a7da-6d921a2d299e",
    "timestamp": 1745326800000,
    "latitude": -33.447066,
    "longitude": -70.665194,
    "type": "HAZARD",
    "subtype": "HAZARD_ON_ROAD_LANE_CLOSED",
    "street": "Av. Libertador Bernardo O'Higgins",
    "city": "Santiago",
    "country": "CI",
    "reliability": 10,
    "reportRating": 0,
    "confidence": 5
  },
  {
    "id": "22eea1b5-f831-4651-a050-314a72498a76",
    "timestamp": 1745856170000,
    "latitude": -33.365764,
    "longitude": -70.698178,
    "type": "JAM",
    "subtype": "",
    "street": "Salida 8B > Ruta 5 Norte / La Serena",
    "country": "CI",
    "reliability": 5,
    "reportRating": 3,
    "confidence": 0
  },
  {
    "id": "8b60b9d9-d88a-4c4a-93d0-5c2d75c4cae6",
    "timestamp": 1740597023000,
    "latitude": -33.443729,
    "longitude": -70.784164,
    "type": "ROAD_CLOSED",
    "subtype": "ROAD_CLOSED_EVENT",
    "street": "Av. San Pablo",
    "city": "Pudahuel",
    "country": "CI",
    "reliability": 10,
    "reportRating": 1,
    "confidence": 5
  },
  {
    "id": "a5e6fa83-be71-437c-ae55-3ec010437fd2",
    "timestamp": 1745856462000,
    "latitude": -33.588102,
    "longitude": -70.715405,
    "type": "ACCIDENT",
    "subtype": "",
    "street": "Av. Pdte. Jorge Alessandri Rodríguez",
    "city": "San Bernardo",
    "country": "CI",
    "reliability": 5,
    "reportRating": 2,
    "confidence": 0
  },
  {
    "id": "c7bd8c8f-25e9-4e77-8fe4-a46627c1e878",
    "timestamp": 1745855859000,
    "latitude": -33.49633,
    "longitude": -70.599626,
    "type": "JAM",
    "subtype": "JAM_HEAVY_TRAFFIC",
    "street": "Los Flamencos",
    "city": "Macul",
    "country": "CI",
    "reliability": 5,
    "reportRating": 0,
    "confidence": 0
  },
  {
    "id": "b0deb0de-c3c8-43c9-be35-e87da4d5fb1b",
    "timestamp": 1745854914000,
    "latitude": -33.523432,
    "longitude": -70.598855,
    "type": "CHIT_CHAT",
    "subtype": "",
    "street": "Av. Américo Vespucio",
    "city": "La Florida",
    "country": "CI",
    "reliability": 10,
    "reportRating": 3,
    "confidence": 5
  },
  {
    "id": "60d3330c-e26f-4c36-9e47-0169d1fd66f0",
    "timestamp": 1745856413000,
    "latitude": -33.485053,
    "longitude": -70.685969,
    "type": "POLICE",
    "subtype": "",
    "street": "Antonio D'Camara Canto",
    "city": "Pedro Aguirre Cerda",
    "country": "CI",
    "reliability": 5,
    "reportRating": 0,
    "confidence": 0
  },
  {
    "id": "7f60a092-69dc-4e77-b2fa-f93e168b8135",
    "timestamp": 1745856641000,
    "latitude": -33.455801,
    "longitude": -70.657029,
    "type": "HAZARD",
    "subtype": "HAZARD_ON_ROAD",
    "street": "Autopista Central",
    "country": "CI",
    "reliability": 8,
    "reportRating": 1,
    "confidence": 1
  },
  {
    "id": "6314d7a6-3d22-4038-a9d4-9d8c8cd041cf",
    "timestamp": 1745326800000,
    "latitude": -33.447716,
    "longitude": -70.66759,
    "type": "HAZARD",
    "subtype": "HAZARD_ON_ROAD_LANE_CLOSED",
    "street": "Av. Libertador Bernardo O'Higgins",
    "city": "Santiago",
    "country": "CI",
    "reliability": 10,
    "reportRating": 0,
    "confidence": 5
  },
  {
    "id": "27d9564c-aa0f-45ae-b057-3d1179df8388",
    "timestamp": 1717680414000,
    "latitude": -33.396267,
    "longitude": -70.671402,
    "type": "ROAD_CLOSED",
    "subtype": "ROAD_CLOSED_EVENT",
    "street": "Av. Independencia",
    "city": "Conchalí",
    "country": "CI",
    "reliability": 10,
    "reportRating": 5,
    "confidence": 5
  },
  {
    "id": "567f6dc8-a89d-499a-b5bb-f594be5c4e20",
    "timestamp": 1743690902000,
    "latitude": -33.472782,
    "longitude": -70.748545,
    "type": "ROAD_CLOSED",
    "subtype": "ROAD_CLOSED_EVENT",
    "street": "Longitudinal",
    "city": "Maipú",
    "country": "CI",
    "reliability": 8,
    "reportRating": 5,
    "confidence": 1
  },
  {
    "id": "08ebc5de-6a3c-4e90-89df-734a8f57ef3a",
    "timestamp": 1743690902000,
    "latitude": -33.471202,
    "longitude": -70.748263,
    "type": "ROAD_CLOSED",
    "subtype": "ROAD_CLOSED_EVENT",
    "street": "Longitudinal",
    "city": "Maipú",
    "country": "CI",
    "reliability": 8,
    "reportRating": 5,
    "confidence": 1
  },
  {
    "id": "5d49ed0a-aaf3-4705-b37d-77644b79f986",
    "timestamp": 1745856545000,
    "latitude": -33.445693,
    "longitude": -70.659725,
    "type": "JAM",
    "subtype": "JAM_STAND_STILL_TRAFFIC",
    "street": "Av. Libertador Bernardo O'Higgins",
    "city": "Santiago",
    "country": "CI",
    "reliability": 5,
    "reportRating": 2,
    "confidence": 0
  },
  {
    "id": "2b476fb4-1e8e-4f2e-8fe1-a962bdaa9ffa",
    "timestamp": 1745855260000,
    "latitude": -33.444267,
    "longitude": -70.740641,
    "type": "HAZARD",
    "subtype": "HAZARD_ON_ROAD_POT_HOLE",
    "street": "Av. Teniente Luis Cruz Martínez",
    "city": "Pudahuel",
    "country": "CI",
    "reliability": 10,
    "reportRating": 1,
    "confidence": 3
  },
  {
    "id": "6ea0d056-b0c4-4527-a665-7118ef812fc3",
    "timestamp": 1737348297000,
    "latitude": -33.434109,
    "longitude": -70.72102,
    "type": "ROAD_CLOSED",
    "subtype": "ROAD_CLOSED_EVENT",
    "street": "Vicuña Rozas",
    "city": "Cerro Navia",
    "country": "CI",
    "reliability": 10,
    "reportRating": 5,
    "confidence": 5
  },
  {
    "id": "1cf76af2-d916-42a3-baaa-c94159c5f627",
    "timestamp": 1745854810000,
    "latitude": -33.486804,
    "longitude": -70.558517,
    "type": "ROAD_CLOSED",
    "subtype": "ROAD_CLOSED_EVENT",
    "street": "Av. Tobalaba",
    "city": "Peñalolén",
    "country": "CI",
    "reliability": 6,
    "reportRating": 0,
    "confidence": 0
  },
  {
    "id": "00ac90e8-8af8-4520-9e23-84c39c1ca5f3",
    "timestamp": 1745855611000,
    "latitude": -33.444046,
    "longitude": -70.652267,
    "type": "POLICE",
    "subtype": "",
    "street": "Av. Libertador Bernardo O'Higgins",
    "city": "Santiago",
    "country": "CI",
    "reliability": 10,
    "reportRating": 1,
    "confidence": 5
  },
  {
    "id": "befd4d87-a76d-475c-9acd-345fa1db5eb8",
    "timestamp": 1717680414000,
    "latitude": -33.395503,
    "longitude": -70.672108,
    "type": "ROAD_CLOSED",
    "subtype": "ROAD_CLOSED_EVENT",
    "street": "Av. Independencia",
    "city": "Conchalí",
    "country": "CI",
    "reliability": 6,
    "reportRating": 5,
    "confidence": 0
  },
  {
    "id": "732d298a-46c0-4a26-b90f-11eef8839bd3",
    "timestamp": 1745856348000,
    "latitude": -33.39616,
    "longitude": -70.741859,
    "type": "HAZARD",
    "subtype": "HAZARD_ON_ROAD_POT_HOLE",
    "street": "Lo Boza",
    "city": "Renca",
    "country": "CI",
    "reliability": 6,
    "reportRating": 2,
    "confidence": 0
  },
  {
    "id": "759c99f5-1870-41f9-9abe-9bd9392a7bfa",
    "timestamp": 1745856431000,
    "latitude": -33.473239,
    "longitude": -70.621005,
    "type": "POLICE",
    "subtype": "",
    "street": "Av. Zañartu",
    "city": "Ñuñoa",
    "country": "CI",
    "reliability": 7,
    "reportRating": 0,
    "confidence": 1
  },
  {
    "id": "a0613819-6f13-4b62-9898-d6ca7c690857",
    "timestamp": 1743596805000,
    "latitude": -33.474138,
    "longitude": -70.756898,
    "type": "ROAD_CLOSED",
    "subtype": "ROAD_CLOSED_EVENT",
    "street": "Av. Hugo Bravo",
    "city": "Maipú",
    "country": "CI",
    "reliability": 7,
    "reportRating": 5,
    "confidence": 0
  },
  {
    "id": "01fd7649-f66a-401d-b719-c0a6d2826da6",
    "timestamp": 1744949126000,
    "latitude": -33.471714,
    "longitude": -70.748344,
    "type": "ROAD_CLOSED",
    "subtype": "ROAD_CLOSED_EVENT",
    "street": "Aves del Paraíso",
    "city": "Maipú",
    "country": "CI",
    "reliability": 8,
    "reportRating": 5,
    "confidence": 1
  },
  {
    "id": "ab6daf4e-3217-4519-bf47-4597e1ff2630",
    "timestamp": 1717680104000,
    "latitude": -33.396926,
    "longitude": -70.670756,
    "type": "ROAD_CLOSED",
    "subtype": "ROAD_CLOSED_EVENT",
    "street": "Av. Independencia",
    "city": "Conchalí",
    "country": "CI",
    "reliability": 7,
    "reportRating": 5,
    "confidence": 0
  },
  {
    "id": "7e11e0de-2492-48c5-97af-45005dd79627",
    "timestamp": 1745326800000,
    "latitude": -33.44576,
    "longitude": -70.657417,
    "type": "HAZARD",
    "subtype": "HAZARD_ON_ROAD_LANE_CLOSED",
    "street": "Av. Libertador Bernardo O'Higgins",
    "city": "Santiago",
    "country": "CI",
    "reliability": 10,
    "reportRating": 0,
    "confidence": 5
  },
  {
    "id": "5a9f3e50-35e5-4594-a80c-cdaf6b4fabd7",
    "timestamp": 1745856575000,
    "latitude": -33.429099,
    "longitude": -70.689988,
    "type": "JAM",
    "subtype": "",
    "street": "Julio Bañados",
    "city": "Quinta Normal",
    "country": "CI",
    "reliability": 5,
    "reportRating": 0,
    "confidence": 0
  },
  {
    "id": "aa39d3bd-6086-4e8c-8df0-ae70c1b4be54",
    "timestamp": 1740598655000,
    "latitude": -33.441051,
    "longitude": -70.789626,
    "type": "ROAD_CLOSED",
    "subtype": "ROAD_CLOSED_EVENT",
    "street": "Depósito Express Pudahuel",
    "city": "Pudahuel",
    "country": "CI",
    "reliability": 10,
    "reportRating": 1,
    "confidence": 4
  },
  {
    "id": "1267144f-4359-4781-b226-4b332dc5a4f1",
    "timestamp": 1745853834000,
    "latitude": -33.408268,
    "longitude": -70.602757,
    "type": "ROAD_CLOSED",
    "subtype": "ROAD_CLOSED_EVENT",
    "street": "Los Conquistadores / Túnel San Cristóbal",
    "country": "CI",
    "reliability": 6,
    "reportRating": 0,
    "confidence": 0
  },
  {
    "id": "09467452-f094-4afc-9b58-ea917a90379c",
    "timestamp": 1745856542000,
    "latitude": -33.596834,
    "longitude": -70.664569,
    "type": "HAZARD",
    "subtype": "HAZARD_ON_SHOULDER_CAR_STOPPED",
    "street": "Paicaví",
    "city": "La Pintana",
    "country": "CI",
    "reliability": 5,
    "reportRating": 2,
    "confidence": 0
  },
  {
    "id": "f432b0ec-b878-4c09-990b-4765d48db940",
    "timestamp": 1740598655000,
    "latitude": -33.44138,
    "longitude": -70.790036,
    "type": "ROAD_CLOSED",
    "subtype": "ROAD_CLOSED_EVENT",
    "street": "Depósito Express Pudahuel",
    "city": "Pudahuel",
    "country": "CI",
    "reliability": 8,
    "reportRating": 1,
    "confidence": 1
  },
  {
    "id": "c4dfd16b-55a2-46a9-91fb-52d79cc86591",
    "timestamp": 1745854596000,
    "latitude": -33.469017,
    "longitude": -70.648595,
    "type": "POLICE",
    "subtype": "",
    "street": "San Diego",
    "city": "Santiago",
    "country": "CI",
    "reliability": 10,
    "reportRating": 1,
    "confidence": 5
  },
  {
    "id": "3647f820-7fd2-4652-9843-ff7be33c939c",
    "timestamp": 1745855819000,
    "latitude": -33.50994,
    "longitude": -70.609656,
    "type": "POLICE",
    "subtype": "",
    "street": "Av. Vicuña Mackenna Oriente",
    "city": "La Florida",
    "country": "CI",
    "reliability": 10,
    "reportRating": 1,
    "confidence": 1
  },
  {
    "id": "5f459195-3c58-4732-aec9-d628b4ae6a55",
    "timestamp": 1745856551000,
    "latitude": -33.552117,
    "longitude": -70.842149,
    "type": "HAZARD",
    "subtype": "HAZARD_ON_ROAD_CONSTRUCTION",
    "street": "Ruta G-68 / Camino a Valparaíso",
    "country": "CI",
    "reliability": 5,
    "reportRating": 3,
    "confidence": 0
  },
  {
    "id": "457cb3d3-2203-44ea-a51f-b65a760d21e1",
    "timestamp": 1745856476000,
    "latitude": -33.4437,
    "longitude": -70.633218,
    "type": "JAM",
    "subtype": "",
    "street": "Av. Vicuña Mackenna",
    "city": "Providencia",
    "country": "CI",
    "reliability": 5,
    "reportRating": 0,
    "confidence": 0
  },
  {
    "id": "4741c2c4-dafe-4b74-99c5-4b4d2f657c30",
    "timestamp": 1745855247000,
    "latitude": -33.485326,
    "longitude": -70.626339,
    "type": "HAZARD",
    "subtype": "HAZARD_ON_ROAD_CONSTRUCTION",
    "street": "Av. Carlos Valdovinos",
    "city": "San Joaquín",
    "country": "CI",
    "reliability": 10,
    "reportRating": 3,
    "confidence": 5
  },
  {
    "id": "d1033cc9-5883-4833-ad1f-b272f9ee5dae",
    "timestamp": 1745856529000,
    "latitude": -33.316819,
    "longitude": -70.722013,
    "type": "JAM",
    "subtype": "JAM_HEAVY_TRAFFIC",
    "street": "Salida Av. Eduardo Frei > Av. La Montaña",
    "country": "CI",
    "reliability": 5,
    "reportRating": 3,
    "confidence": 0
  },
  {
    "id": "a8e74784-639e-4b67-acba-68678238a0dd",
    "timestamp": 1745856265000,
    "latitude": -33.398437,
    "longitude": -70.738854,
    "type": "HAZARD",
    "subtype": "HAZARD_ON_ROAD_POT_HOLE",
    "street": "Lo Boza",
    "city": "Renca",
    "country": "CI",
    "reliability": 7,
    "reportRating": 2,
    "confidence": 1
  },
  {
    "id": "8d5c76da-2c1e-4ed9-84c6-cf2e79de696b",
    "timestamp": 1740598542000,
    "latitude": -33.44144,
    "longitude": -70.790116,
    "type": "ROAD_CLOSED",
    "subtype": "ROAD_CLOSED_EVENT",
    "street": "Depósito Express Pudahuel",
    "city": "Pudahuel",
    "country": "CI",
    "reliability": 10,
    "reportRating": 1,
    "confidence": 3
  },
  {
    "id": "c23180b7-3977-4234-b6ed-ad7d91f0be64",
    "timestamp": 1740598655000,
    "latitude": -33.44138,
    "longitude": -70.790036,
    "type": "ROAD_CLOSED",
    "subtype": "ROAD_CLOSED_EVENT",
    "street": "Depósito Express Pudahuel",
    "city": "Pudahuel",
    "country": "CI",
    "reliability": 10,
    "reportRating": 1,
    "confidence": 3
  },
  {
    "id": "fc992585-a811-4136-9cc3-f68d6a29830c",
    "timestamp": 1745856620000,
    "latitude": -33.415111,
    "longitude": -70.692104,
    "type": "HAZARD",
    "subtype": "HAZARD_ON_ROAD_CONSTRUCTION",
    "street": "Autopista Central - Eje Gral. Velásquez",
    "country": "CI",
    "reliability": 9,
    "reportRating": 2,
    "confidence": 2
  },
  {
    "id": "3b6ceac0-82cf-4e99-9b46-d0c7fa4f4934",
    "timestamp": 1745854672000,
    "latitude": -33.487327,
    "longitude": -70.558583,
    "type": "ROAD_CLOSED",
    "subtype": "ROAD_CLOSED_EVENT",
    "street": "Av. Tobalaba",
    "city": "Peñalolén",
    "country": "CI",
    "reliability": 6,
    "reportRating": 0,
    "confidence": 0
  },
  {
    "id": "5c7a8fdd-d430-40be-b9cb-72abeed08c68",
    "timestamp": 1745856345000,
    "latitude": -33.397754,
    "longitude": -70.639211,
    "type": "HAZARD",
    "subtype": "HAZARD_ON_ROAD_CONSTRUCTION",
    "street": "Campanario",
    "city": "Recoleta",
    "country": "CI",
    "reliability": 5,
    "reportRating": 0,
    "confidence": 0
  },
  {
    "id": "d5e337b4-d0fb-4350-934c-d345a1c514d3",
    "timestamp": 1745856232000,
    "latitude": -33.485387,
    "longitude": -70.62612,
    "type": "CHIT_CHAT",
    "subtype": "",
    "street": "Av. Carlos Valdovinos",
    "city": "San Joaquín",
    "country": "CI",
    "reliability": 5,
    "reportRating": 3,
    "confidence": 0
  },
  {
    "id": "8e84a7fe-8f0d-4084-b62d-5894e6b8c39a",
    "timestamp": 1737348297000,
    "latitude": -33.433864,
    "longitude": -70.721805,
    "type": "ROAD_CLOSED",
    "subtype": "ROAD_CLOSED_EVENT",
    "street": "Vicuña Rozas",
    "city": "Cerro Navia",
    "country": "CI",
    "reliability": 10,
    "reportRating": 5,
    "confidence": 5
  },
  {
    "id": "a32dc562-3053-4414-89b0-2c5d799e5319",
    "timestamp": 1745855477000,
    "latitude": -33.417321,
    "longitude": -70.601718,
    "type": "HAZARD",
    "subtype": "HAZARD_ON_ROAD",
    "street": "Estacionamientos MUT",
    "city": "Providencia",
    "country": "CI",
    "reliability": 5,
    "reportRating": 1,
    "confidence": 0
  },
  {
    "id": "b03ef774-b4dd-42ea-919f-2e6cc51a969b",
    "timestamp": 1745856553000,
    "latitude": -33.417809,
    "longitude": -70.656516,
    "type": "HAZARD",
    "subtype": "HAZARD_ON_ROAD",
    "street": "Av. Independencia",
    "city": "Independencia",
    "country": "CI",
    "reliability": 5,
    "reportRating": 3,
    "confidence": 0
  },
  {
    "id": "88637c1d-6750-4a7d-8a21-4e68daa6d381",
    "timestamp": 1745851744000,
    "latitude": -33.438263,
    "longitude": -70.634935,
    "type": "HAZARD",
    "subtype": "HAZARD_ON_ROAD",
    "street": "Av. Vicuña Mackenna",
    "city": "Providencia",
    "country": "CI",
    "reliability": 10,
    "reportRating": 0,
    "confidence": 5
  },
  {
    "id": "45e9fcdc-a2bc-4a04-aae1-d6da80e36b05",
    "timestamp": 1745855001000,
    "latitude": -33.475792,
    "longitude": -70.628974,
    "type": "HAZARD",
    "subtype": "HAZARD_ON_ROAD",
    "street": "Pintor Cicarelli",
    "city": "San Joaquín",
    "country": "CI",
    "reliability": 6,
    "reportRating": 0,
    "confidence": 0
  },
  {
    "id": "8ac31803-23bd-4282-bf6e-f07f887d2bbe",
    "timestamp": 1745855022000,
    "latitude": -33.482115,
    "longitude": -70.745647,
    "type": "CHIT_CHAT",
    "subtype": "",
    "street": "Av. Pajaritos",
    "city": "Maipú",
    "country": "CI",
    "reliability": 5,
    "reportRating": 0,
    "confidence": 0
  },
  {
    "id": "97466325-bf02-4bcd-8c7b-305cd576a462",
    "timestamp": 1745856094000,
    "latitude": -33.43822,
    "longitude": -70.640299,
    "type": "POLICE",
    "subtype": "",
    "street": "Villavicencio",
    "city": "Santiago",
    "country": "CI",
    "reliability": 5,
    "reportRating": 1,
    "confidence": 0
  },
  {
    "id": "285eca93-508c-4b01-b2d4-db5a2fc79024",
    "timestamp": 1745326800000,
    "latitude": -33.444772,
    "longitude": -70.65554,
    "type": "HAZARD",
    "subtype": "HAZARD_ON_ROAD_LANE_CLOSED",
    "street": "Av. Libertador Bernardo O'Higgins",
    "city": "Santiago",
    "country": "CI",
    "reliability": 10,
    "reportRating": 0,
    "confidence": 5
  },
  {
    "id": "0cff761b-cfe6-4542-b447-5be7d7b260f8",
    "timestamp": 1745856378000,
    "latitude": -33.442493,
    "longitude": -70.673142,
    "type": "POLICE",
    "subtype": "",
    "street": "Rafael Sotomayor",
    "city": "Santiago",
    "country": "CI",
    "reliability": 5,
    "reportRating": 1,
    "confidence": 0
  },
  {
    "id": "239c5aea-bb21-4030-a245-7251029989be",
    "timestamp": 1745850960000,
    "latitude": -33.536141,
    "longitude": -70.769618,
    "type": "HAZARD",
    "subtype": "HAZARD_ON_ROAD_CONSTRUCTION",
    "street": "Ruta 76 / Camino a Melipilla",
    "country": "CI",
    "reliability": 10,
    "reportRating": 3,
    "confidence": 5
  },
  {
    "id": "89e5e98a-95a2-4766-9643-f2eaa00af0e1",
    "timestamp": 1745854810000,
    "latitude": -33.370907,
    "longitude": -70.67093,
    "type": "HAZARD",
    "subtype": "HAZARD_ON_ROAD_TRAFFIC_LIGHT_FAULT",
    "street": "Av. Pedro Fontova Norte",
    "city": "Huechuraba",
    "country": "CI",
    "reliability": 6,
    "reportRating": 2,
    "confidence": 0
  },
  {
    "id": "edce487b-c3f3-4b50-8e14-88228742383f",
    "timestamp": 1743690902000,
    "latitude": -33.472275,
    "longitude": -70.74845,
    "type": "ROAD_CLOSED",
    "subtype": "ROAD_CLOSED_EVENT",
    "street": "Longitudinal",
    "city": "Maipú",
    "country": "CI",
    "reliability": 6,
    "reportRating": 5,
    "confidence": 0
  },
  {
    "id": "1854f755-889b-4d81-b886-90f5a2413a0d",
    "timestamp": 1745856693000,
    "latitude": -33.489601,
    "longitude": -70.725661,
    "type": "POLICE",
    "subtype": "",
    "street": "Costa Rica",
    "city": "Cerrillos",
    "country": "CI",
    "reliability": 5,
    "reportRating": 2,
    "confidence": 0
  },
  {
    "id": "68f9313b-a76c-4d3a-8034-260e7cacb6d5",
    "timestamp": 1743690902000,
    "latitude": -33.470679,
    "longitude": -70.748175,
    "type": "ROAD_CLOSED",
    "subtype": "ROAD_CLOSED_EVENT",
    "street": "Longitudinal",
    "city": "Maipú",
    "country": "CI",
    "reliability": 6,
    "reportRating": 5,
    "confidence": 0
  },
  {
    "id": "530665e6-3e0b-4ee9-a986-3ddc77da5c45",
    "timestamp": 1745854995000,
    "latitude": -33.394536,
    "longitude": -70.68672,
    "type": "HAZARD",
    "subtype": "HAZARD_ON_ROAD",
    "street": "Av. Presidente Eduardo Frei Montalva",
    "city": "Conchalí",
    "country": "CI",
    "reliability": 8,
    "reportRating": 3,
    "confidence": 1
  },
  {
    "id": "d9401fa3-7e2a-4aaa-bc39-ff83018a1ee5",
    "timestamp": 1743690902000,
    "latitude": -33.471714,
    "longitude": -70.748344,
    "type": "ROAD_CLOSED",
    "subtype": "ROAD_CLOSED_EVENT",
    "street": "Longitudinal",
    "city": "Maipú",
    "country": "CI",
    "reliability": 6,
    "reportRating": 5,
    "confidence": 0
  },
  {
    "id": "30aa48f8-4f5a-4a94-ac18-d7eb147ffb89",
    "timestamp": 1745856301000,
    "latitude": -33.447397,
    "longitude": -70.660411,
    "type": "CHIT_CHAT",
    "subtype": "",
    "street": "Autopista Central",
    "country": "CI",
    "reliability": 7,
    "reportRating": 3,
    "confidence": 1
  },
  {
    "id": "a5779c6b-5b87-4873-8290-cdd66c944bb2",
    "timestamp": 1745326800000,
    "latitude": -33.446171,
    "longitude": -70.661693,
    "type": "HAZARD",
    "subtype": "HAZARD_ON_ROAD_LANE_CLOSED",
    "street": "Av. Libertador Bernardo O'Higgins",
    "city": "Santiago",
    "country": "CI",
    "reliability": 10,
    "reportRating": 0,
    "confidence": 5
  },
  {
    "id": "f509ffae-2304-4961-b039-c6889f7e3474",
    "timestamp": 1744904228000,
    "latitude": -33.44743,
    "longitude": -70.777797,
    "type": "ROAD_CLOSED",
    "subtype": "ROAD_CLOSED_EVENT",
    "street": "Salida a Vespucio Norte Express > La Florida / 5 Sur / Maipú",
    "country": "CI",
    "reliability": 10,
    "reportRating": 5,
    "confidence": 3
  },
  {
    "id": "927a5716-262c-4a42-8aa6-20ccb482570d",
    "timestamp": 1745856210000,
    "latitude": -33.531022,
    "longitude": -70.623287,
    "type": "JAM",
    "subtype": "JAM_HEAVY_TRAFFIC",
    "street": "Av. Cardenal Raúl Silva Henríquez",
    "city": "La Granja",
    "country": "CI",
    "reliability": 5,
    "reportRating": 2,
    "confidence": 0
  },
  {
    "id": "281bd26e-654b-4e1f-8610-581ebbdb2143",
    "timestamp": 1745856644000,
    "latitude": -33.402053,
    "longitude": -70.69668,
    "type": "HAZARD",
    "subtype": "HAZARD_ON_SHOULDER_CAR_STOPPED",
    "street": "Av. Apóstol Santiago",
    "city": "Renca",
    "country": "CI",
    "reliability": 5,
    "reportRating": 3,
    "confidence": 0
  },
  {
    "id": "f081ac39-97ff-4a30-9984-8bc095f80507",
    "timestamp": 1744948800000,
    "latitude": -33.47558,
    "longitude": -70.748952,
    "type": "ROAD_CLOSED",
    "subtype": "ROAD_CLOSED_EVENT",
    "street": "Longitudinal",
    "city": "Maipú",
    "country": "CI",
    "reliability": 6,
    "reportRating": 5,
    "confidence": 0
  },
  {
    "id": "28e33045-4c1e-4f1a-b624-294c94adb6a2",
    "timestamp": 1745855116000,
    "latitude": -33.453861,
    "longitude": -70.678025,
    "type": "POLICE",
    "subtype": "",
    "street": "Exposición",
    "city": "Santiago",
    "country": "CI",
    "reliability": 10,
    "reportRating": 2,
    "confidence": 5
  },
  {
    "id": "e1b7dde7-3ea3-45f3-b6bf-69302d3e1730",
    "timestamp": 1745854496000,
    "latitude": -33.395029,
    "longitude": -70.531176,
    "type": "HAZARD",
    "subtype": "HAZARD_ON_ROAD_CONSTRUCTION",
    "street": "Camino del Algarrobo",
    "city": "Las Condes",
    "country": "CI",
    "reliability": 10,
    "reportRating": 5,
    "confidence": 1
  },
  {
    "id": "de6f80da-0af9-4f63-a84d-dcc5d49d4576",
    "timestamp": 1743690902000,
    "latitude": -33.473295,
    "longitude": -70.748637,
    "type": "ROAD_CLOSED",
    "subtype": "ROAD_CLOSED_EVENT",
    "street": "Longitudinal",
    "city": "Maipú",
    "country": "CI",
    "reliability": 6,
    "reportRating": 5,
    "confidence": 0
  },
  {
    "id": "76801672-0f3b-4f68-9349-f50226cd0cc6",
    "timestamp": 1745854906000,
    "latitude": -33.358319,
    "longitude": -70.703909,
    "type": "JAM",
    "subtype": "JAM_HEAVY_TRAFFIC",
    "street": "Ruta 5 Norte",
    "country": "CI",
    "reliability": 6,
    "reportRating": 3,
    "confidence": 0
  },
  {
    "id": "60372a43-d6ee-427b-9ab4-32902da0180c",
    "timestamp": 1745856591000,
    "latitude": -33.400579,
    "longitude": -70.570373,
    "type": "JAM",
    "subtype": "JAM_STAND_STILL_TRAFFIC",
    "street": "Av. Manquehue",
    "city": "Las Condes",
    "country": "CI",
    "reliability": 5,
    "reportRating": 2,
    "confidence": 0
  },
  {
    "id": "54e09336-40bb-432a-ac98-5bf3d80f8971",
    "timestamp": 1745856087000,
    "latitude": -33.428894,
    "longitude": -70.558398,
    "type": "HAZARD",
    "subtype": "HAZARD_ON_SHOULDER_CAR_STOPPED",
    "street": "Vichato",
    "city": "Las Condes",
    "country": "CI",
    "reliability": 5,
    "reportRating": 3,
    "confidence": 0
  },
  {
    "id": 153347304,
    "timestamp": 1745856638422,
    "latitude": -33.502772,
    "longitude": -70.777879,
    "type": "jam",
    "street": "Pasaje Quo Vadis",
    "city": "Maipú",
    "country": "CI",
    "speedKMH": 2.57,
    "length": 159,
    "delay": 178,
    "level": 4,
    "line": [
      {
        "x": -70.777879,
        "y": -33.502772
      },
      {
        "x": -70.777892,
        "y": -33.502094
      },
      {
        "x": -70.777918,
        "y": -33.501787
      },
      {
        "x": -70.777957,
        "y": -33.501337
      }
    ],
    "segments": [
      {
        "fromNode": 153017072,
        "ID": 281085621,
        "toNode": 232847838,
        "isForward": true
      },
      {
        "fromNode": 232847838,
        "ID": 354737428,
        "toNode": 280340164,
        "isForward": true
      },
      {
        "fromNode": 280340164,
        "ID": 354737430,
        "toNode": 153428026,
        "isForward": true
      }
    ]
  },
  {
    "id": 152194294,
    "timestamp": 1745856242056,
    "latitude": -33.557714,
    "longitude": -70.657552,
    "type": "jam",
    "street": "Las Araucarias",
    "city": "El Bosque",
    "country": "CI",
    "speedKMH": 6.04,
    "length": 236,
    "delay": 99,
    "level": 3,
    "line": [
      {
        "x": -70.657552,
        "y": -33.557714
      },
      {
        "x": -70.657787,
        "y": -33.558694
      },
      {
        "x": -70.657855,
        "y": -33.5591
      },
      {
        "x": -70.657928,
        "y": -33.559513
      },
      {
        "x": -70.657994,
        "y": -33.559812
      }
    ],
    "segments": [
      {
        "fromNode": 157024351,
        "ID": 153527550,
        "toNode": 157024929,
        "isForward": true
      },
      {
        "fromNode": 157024929,
        "ID": 153527551,
        "toNode": 157024926,
        "isForward": true
      },
      {
        "fromNode": 157024926,
        "ID": 153528783,
        "toNode": 157025484,
        "isForward": true
      },
      {
        "fromNode": 157025484,
        "ID": 153528784,
        "toNode": 157025467,
        "isForward": true
      }
    ]
  },
  {
    "id": 152926324,
    "timestamp": 1745856479274,
    "latitude": -33.490007,
    "longitude": -70.546019,
    "type": "jam",
    "street": "Av. Los Presidentes",
    "city": "Peñalolén",
    "country": "CI",
    "speedKMH": 9.04,
    "length": 352,
    "delay": 96,
    "level": 3,
    "line": [
      {
        "x": -70.546019,
        "y": -33.490007
      },
      {
        "x": -70.546184,
        "y": -33.489956
      },
      {
        "x": -70.549586,
        "y": -33.488933
      }
    ],
    "segments": [
      {
        "fromNode": 206017495,
        "ID": 240344887,
        "toNode": 206017499,
        "isForward": false
      },
      {
        "fromNode": 206017499,
        "ID": 384038461,
        "toNode": 211398323,
        "isForward": false
      }
    ]
  },
  {
    "id": 152660178,
    "timestamp": 1745856401805,
    "latitude": -33.44397,
    "longitude": -70.70631,
    "type": "jam",
    "street": "Tadeo Vargas",
    "city": "Quinta Normal",
    "country": "CI",
    "speedKMH": 6.27,
    "length": 223,
    "delay": 83,
    "level": 2,
    "line": [
      {
        "x": -70.70631,
        "y": -33.44397
      },
      {
        "x": -70.70641,
        "y": -33.445985
      }
    ],
    "segments": [
      {
        "fromNode": 156950506,
        "ID": 153344155,
        "toNode": 156950497,
        "isForward": true
      }
    ]
  },
  {
    "id": 153123010,
    "timestamp": 1745856559073,
    "latitude": -33.455958,
    "longitude": -70.674213,
    "type": "jam",
    "street": "Toesca",
    "city": "Santiago",
    "country": "CI",
    "speedKMH": 5.31,
    "length": 179,
    "delay": 85,
    "level": 3,
    "line": [
      {
        "x": -70.674213,
        "y": -33.455958
      },
      {
        "x": -70.672859,
        "y": -33.455686
      },
      {
        "x": -70.672338,
        "y": -33.455573
      }
    ],
    "segments": [
      {
        "fromNode": 153778282,
        "ID": 146026289,
        "toNode": 153778283,
        "isForward": true
      },
      {
        "fromNode": 153778283,
        "ID": 146026293,
        "toNode": 153778284,
        "isForward": true
      }
    ]
  },
  {
    "id": 93075618,
    "timestamp": 1745837142749,
    "latitude": -33.539187,
    "longitude": -70.663019,
    "type": "jam",
    "street": "Av. Ossa",
    "city": "La Cisterna",
    "country": "CI",
    "speedKMH": 0,
    "length": 149,
    "delay": -1,
    "level": 5,
    "line": [
      {
        "x": -70.663019,
        "y": -33.539187
      },
      {
        "x": -70.664578,
        "y": -33.538877
      }
    ],
    "segments": [
      {
        "fromNode": 213008077,
        "ID": 251429163,
        "toNode": 148083552,
        "isForward": false
      }
    ]
  },
  {
    "id": 153543790,
    "timestamp": 1745856717976,
    "latitude": -33.510581,
    "longitude": -70.786523,
    "type": "jam",
    "street": "Pangal",
    "city": "Maipú",
    "country": "CI",
    "speedKMH": 6.14,
    "length": 266,
    "delay": 99,
    "level": 3,
    "line": [
      {
        "x": -70.786523,
        "y": -33.510581
      },
      {
        "x": -70.786537,
        "y": -33.510727
      },
      {
        "x": -70.786569,
        "y": -33.510951
      },
      {
        "x": -70.786626,
        "y": -33.511322
      },
      {
        "x": -70.786689,
        "y": -33.511707
      },
      {
        "x": -70.786745,
        "y": -33.51207
      },
      {
        "x": -70.786766,
        "y": -33.512202
      },
      {
        "x": -70.786882,
        "y": -33.512956
      }
    ],
    "segments": [
      {
        "fromNode": 163061597,
        "ID": 162640053,
        "toNode": 163061864,
        "isForward": false
      },
      {
        "fromNode": 163061864,
        "ID": 162640052,
        "toNode": 163061600,
        "isForward": false
      },
      {
        "fromNode": 163061600,
        "ID": 162639613,
        "toNode": 163061677,
        "isForward": false
      },
      {
        "fromNode": 163061677,
        "ID": 191846571,
        "toNode": 177640122,
        "isForward": true
      },
      {
        "fromNode": 177640122,
        "ID": 191846572,
        "toNode": 177640112,
        "isForward": true
      },
      {
        "fromNode": 177640112,
        "ID": 191848076,
        "toNode": 177640689,
        "isForward": true
      },
      {
        "fromNode": 177640689,
        "ID": 191848077,
        "toNode": 177639179,
        "isForward": true
      }
    ]
  },
  {
    "id": 1224403346,
    "timestamp": 1743043290433,
    "latitude": -33.392276,
    "longitude": -70.674236,
    "type": "jam",
    "street": "Av. Independencia",
    "city": "Conchalí",
    "country": "CI",
    "speedKMH": 0,
    "length": 69,
    "delay": -1,
    "level": 5,
    "line": [
      {
        "x": -70.674236,
        "y": -33.392276
      },
      {
        "x": -70.673901,
        "y": -33.392826
      }
    ],
    "segments": [
      {
        "fromNode": 155759151,
        "ID": 151682379,
        "toNode": 156246973,
        "isForward": true
      }
    ]
  },
  {
    "id": 148374858,
    "timestamp": 1745854901901,
    "latitude": -33.453187,
    "longitude": -70.681514,
    "type": "jam",
    "street": "Obispo Javier Vásquez",
    "city": "Estación Central",
    "country": "CI",
    "speedKMH": 11.11,
    "length": 438,
    "delay": 71,
    "level": 2,
    "line": [
      {
        "x": -70.681514,
        "y": -33.453187
      },
      {
        "x": -70.682349,
        "y": -33.453428
      },
      {
        "x": -70.682593,
        "y": -33.453498
      },
      {
        "x": -70.683054,
        "y": -33.453637
      },
      {
        "x": -70.684463,
        "y": -33.454026
      },
      {
        "x": -70.685525,
        "y": -33.454312
      },
      {
        "x": -70.685662,
        "y": -33.454324
      },
      {
        "x": -70.685848,
        "y": -33.454292
      },
      {
        "x": -70.686003,
        "y": -33.45429
      }
    ],
    "segments": [
      {
        "fromNode": 155691451,
        "ID": 321171318,
        "toNode": 259331048,
        "isForward": true
      },
      {
        "fromNode": 259331048,
        "ID": 321171319,
        "toNode": 155678108,
        "isForward": true
      },
      {
        "fromNode": 155678108,
        "ID": 150351262,
        "toNode": 155675812,
        "isForward": true
      },
      {
        "fromNode": 155675812,
        "ID": 150346158,
        "toNode": 155675299,
        "isForward": true
      },
      {
        "fromNode": 155675299,
        "ID": 150344992,
        "toNode": 155675323,
        "isForward": true
      },
      {
        "fromNode": 155675323,
        "ID": 321068032,
        "toNode": 259267933,
        "isForward": true
      }
    ]
  },
  {
    "id": 1819200932,
    "timestamp": 1745445026980,
    "latitude": -33.450907,
    "longitude": -70.780039,
    "type": "jam",
    "street": "Puerto Madero",
    "city": "Pudahuel",
    "country": "CI",
    "speedKMH": 0,
    "length": 129,
    "delay": -1,
    "level": 5,
    "line": [
      {
        "x": -70.780039,
        "y": -33.450907
      },
      {
        "x": -70.781418,
        "y": -33.450795
      }
    ],
    "segments": [
      {
        "fromNode": 284334812,
        "ID": 360878664,
        "toNode": 152865589,
        "isForward": false
      }
    ]
  },
  {
    "id": 152868094,
    "timestamp": 1745856481765,
    "latitude": -33.450879,
    "longitude": -70.679645,
    "type": "jam",
    "street": "Av. Víctor Jara",
    "city": "Estación Central",
    "country": "CI",
    "speedKMH": 23.61,
    "length": 975,
    "delay": 62,
    "level": 2,
    "line": [
      {
        "x": -70.679645,
        "y": -33.450879
      },
      {
        "x": -70.679814,
        "y": -33.450874
      },
      {
        "x": -70.679889,
        "y": -33.450885
      },
      {
        "x": -70.680262,
        "y": -33.451044
      },
      {
        "x": -70.680503,
        "y": -33.451098
      },
      {
        "x": -70.680596,
        "y": -33.451099
      },
      {
        "x": -70.682723,
        "y": -33.451009
      },
      {
        "x": -70.682956,
        "y": -33.451002
      },
      {
        "x": -70.684751,
        "y": -33.45093
      },
      {
        "x": -70.685643,
        "y": -33.450906
      },
      {
        "x": -70.688153,
        "y": -33.450798
      },
      {
        "x": -70.688304,
        "y": -33.450809
      },
      {
        "x": -70.688521,
        "y": -33.450854
      },
      {
        "x": -70.689293,
        "y": -33.451031
      },
      {
        "x": -70.690001,
        "y": -33.451177
      }
    ],
    "segments": [
      {
        "fromNode": 151823274,
        "ID": 102517014,
        "toNode": 151823173,
        "isForward": true
      },
      {
        "fromNode": 151823173,
        "ID": 142243528,
        "toNode": 151823174,
        "isForward": true
      },
      {
        "fromNode": 151823174,
        "ID": 177324545,
        "toNode": 171533139,
        "isForward": true
      },
      {
        "fromNode": 171533139,
        "ID": 177324546,
        "toNode": 155678060,
        "isForward": true
      },
      {
        "fromNode": 155678060,
        "ID": 315480121,
        "toNode": 255715681,
        "isForward": true
      },
      {
        "fromNode": 255715681,
        "ID": 315480122,
        "toNode": 151823294,
        "isForward": true
      },
      {
        "fromNode": 151823294,
        "ID": 150350714,
        "toNode": 204120411,
        "isForward": true
      },
      {
        "fromNode": 204120411,
        "ID": 150350715,
        "toNode": 204120409,
        "isForward": true
      }
    ]
  },
  {
    "id": 1183278980,
    "timestamp": 1741776157891,
    "latitude": -33.382258,
    "longitude": -70.682391,
    "type": "jam",
    "street": "Av. Independencia",
    "city": "Conchalí",
    "country": "CI",
    "speedKMH": 0,
    "length": 101,
    "delay": -1,
    "level": 5,
    "line": [
      {
        "x": -70.682391,
        "y": -33.382258
      },
      {
        "x": -70.68181,
        "y": -33.383031
      }
    ],
    "segments": [
      {
        "fromNode": 162106611,
        "ID": 160255887,
        "toNode": 156395310,
        "isForward": true
      }
    ]
  },
  {
    "id": 153347134,
    "timestamp": 1745856637082,
    "latitude": -33.402766,
    "longitude": -70.680947,
    "type": "jam",
    "street": "Bajos de Jiménez",
    "city": "Independencia",
    "country": "CI",
    "speedKMH": 8.7,
    "length": 318,
    "delay": 82,
    "level": 3,
    "line": [
      {
        "x": -70.680947,
        "y": -33.402766
      },
      {
        "x": -70.681165,
        "y": -33.402465
      },
      {
        "x": -70.681369,
        "y": -33.402067
      },
      {
        "x": -70.681405,
        "y": -33.401973
      },
      {
        "x": -70.681497,
        "y": -33.401525
      },
      {
        "x": -70.681606,
        "y": -33.400813
      },
      {
        "x": -70.681809,
        "y": -33.400019
      }
    ],
    "segments": [
      {
        "fromNode": 155759508,
        "ID": 150538594,
        "toNode": 155759509,
        "isForward": true
      },
      {
        "fromNode": 155759509,
        "ID": 407147216,
        "toNode": 314644628,
        "isForward": false
      },
      {
        "fromNode": 314644628,
        "ID": 407147215,
        "toNode": 155759489,
        "isForward": false
      },
      {
        "fromNode": 155759489,
        "ID": 360754452,
        "toNode": 284256390,
        "isForward": false
      }
    ]
  },
  {
    "id": 153327630,
    "timestamp": 1745856637399,
    "latitude": -33.488238,
    "longitude": -70.700472,
    "type": "jam",
    "street": "Av. Pedro Aguirre Cerda",
    "city": "Cerrillos",
    "country": "CI",
    "speedKMH": 29.76,
    "length": 1189,
    "delay": 73,
    "level": 2,
    "line": [
      {
        "x": -70.700472,
        "y": -33.488238
      },
      {
        "x": -70.700543,
        "y": -33.488318
      },
      {
        "x": -70.700844,
        "y": -33.488702
      },
      {
        "x": -70.701122,
        "y": -33.489055
      },
      {
        "x": -70.702101,
        "y": -33.490237
      },
      {
        "x": -70.703988,
        "y": -33.492556
      },
      {
        "x": -70.704208,
        "y": -33.492866
      },
      {
        "x": -70.70451,
        "y": -33.493295
      },
      {
        "x": -70.705109,
        "y": -33.49411
      },
      {
        "x": -70.705651,
        "y": -33.494833
      },
      {
        "x": -70.706067,
        "y": -33.495429
      },
      {
        "x": -70.70724,
        "y": -33.497037
      },
      {
        "x": -70.707375,
        "y": -33.497247
      }
    ],
    "segments": [
      {
        "fromNode": 255977419,
        "ID": 315891243,
        "toNode": 213804247,
        "isForward": true
      },
      {
        "fromNode": 213804247,
        "ID": 252703891,
        "toNode": 213804244,
        "isForward": true
      },
      {
        "fromNode": 213804244,
        "ID": 252703886,
        "toNode": 156285320,
        "isForward": true
      },
      {
        "fromNode": 156285320,
        "ID": 151769213,
        "toNode": 156285526,
        "isForward": true
      },
      {
        "fromNode": 156285526,
        "ID": 322586666,
        "toNode": 260233831,
        "isForward": true
      },
      {
        "fromNode": 260233831,
        "ID": 332555703,
        "toNode": 266398139,
        "isForward": true
      },
      {
        "fromNode": 266398139,
        "ID": 332555704,
        "toNode": 163142160,
        "isForward": true
      },
      {
        "fromNode": 163142160,
        "ID": 165078015,
        "toNode": 154592729,
        "isForward": true
      },
      {
        "fromNode": 154592729,
        "ID": 302489044,
        "toNode": 154592726,
        "isForward": false
      },
      {
        "fromNode": 154592726,
        "ID": 147850794,
        "toNode": 152617394,
        "isForward": false
      },
      {
        "fromNode": 152617394,
        "ID": 245740176,
        "toNode": 209445602,
        "isForward": true
      },
      {
        "fromNode": 209445602,
        "ID": 245740188,
        "toNode": 215761392,
        "isForward": true
      }
    ]
  },
  {
    "id": 150843840,
    "timestamp": 1745855768921,
    "latitude": -33.449412,
    "longitude": -70.650769,
    "type": "jam",
    "street": "San Diego",
    "city": "Santiago",
    "country": "CI",
    "speedKMH": 4.72,
    "length": 354,
    "delay": 158,
    "level": 3,
    "line": [
      {
        "x": -70.650769,
        "y": -33.449412
      },
      {
        "x": -70.651018,
        "y": -33.447448
      },
      {
        "x": -70.65123,
        "y": -33.446241
      }
    ],
    "segments": [
      {
        "fromNode": 153347238,
        "ID": 145095875,
        "toNode": 151551457,
        "isForward": true
      },
      {
        "fromNode": 151551457,
        "ID": 147141493,
        "toNode": 154279514,
        "isForward": true
      }
    ]
  },
  {
    "id": 150229436,
    "timestamp": 1745855611843,
    "latitude": -33.456952,
    "longitude": -70.673515,
    "type": "jam",
    "street": "Claudio Gay",
    "city": "Santiago",
    "country": "CI",
    "speedKMH": 7.08,
    "length": 272,
    "delay": 87,
    "level": 3,
    "line": [
      {
        "x": -70.673515,
        "y": -33.456952
      },
      {
        "x": -70.673774,
        "y": -33.457003
      },
      {
        "x": -70.673911,
        "y": -33.457031
      },
      {
        "x": -70.675122,
        "y": -33.457268
      },
      {
        "x": -70.676354,
        "y": -33.45751
      }
    ],
    "segments": [
      {
        "fromNode": 280489160,
        "ID": 354960686,
        "toNode": 280489163,
        "isForward": true
      },
      {
        "fromNode": 280489163,
        "ID": 354960687,
        "toNode": 156779728,
        "isForward": true
      },
      {
        "fromNode": 156779728,
        "ID": 152937102,
        "toNode": 155877751,
        "isForward": true
      },
      {
        "fromNode": 155877751,
        "ID": 150814696,
        "toNode": 156465472,
        "isForward": true
      }
    ]
  },
  {
    "id": 152660046,
    "timestamp": 1745856400758,
    "latitude": -33.438353,
    "longitude": -70.649719,
    "type": "jam",
    "street": "Merced",
    "city": "Santiago",
    "country": "CI",
    "speedKMH": 8.04,
    "length": 600,
    "delay": 147,
    "level": 3,
    "line": [
      {
        "x": -70.649719,
        "y": -33.438353
      },
      {
        "x": -70.64924,
        "y": -33.438312
      },
      {
        "x": -70.648361,
        "y": -33.438203
      },
      {
        "x": -70.647003,
        "y": -33.438055
      },
      {
        "x": -70.6456,
        "y": -33.437933
      },
      {
        "x": -70.644232,
        "y": -33.437812
      },
      {
        "x": -70.643415,
        "y": -33.437738
      },
      {
        "x": -70.643301,
        "y": -33.437711
      }
    ],
    "segments": [
      {
        "fromNode": 217266056,
        "ID": 403723259,
        "toNode": 230380478,
        "isForward": true
      },
      {
        "fromNode": 230380478,
        "ID": 177123152,
        "toNode": 154279424,
        "isForward": true
      },
      {
        "fromNode": 154279424,
        "ID": 195297451,
        "toNode": 154279425,
        "isForward": true
      },
      {
        "fromNode": 154279425,
        "ID": 195297824,
        "toNode": 179100195,
        "isForward": true
      },
      {
        "fromNode": 179100195,
        "ID": 195297825,
        "toNode": 148757068,
        "isForward": true
      },
      {
        "fromNode": 148757068,
        "ID": 251348909,
        "toNode": 212957545,
        "isForward": true
      }
    ]
  },
  {
    "id": 151017572,
    "timestamp": 1745855847472,
    "latitude": -33.454554,
    "longitude": -70.678078,
    "type": "jam",
    "street": "Grajales",
    "city": "Santiago",
    "country": "CI",
    "speedKMH": 3.15,
    "length": 539,
    "delay": 520,
    "level": 4,
    "line": [
      {
        "x": -70.678078,
        "y": -33.454554
      },
      {
        "x": -70.677388,
        "y": -33.454408
      },
      {
        "x": -70.677089,
        "y": -33.454341
      },
      {
        "x": -70.675934,
        "y": -33.454121
      },
      {
        "x": -70.67473,
        "y": -33.453865
      },
      {
        "x": -70.673489,
        "y": -33.453603
      },
      {
        "x": -70.673361,
        "y": -33.453576
      },
      {
        "x": -70.672461,
        "y": -33.453333
      }
    ],
    "segments": [
      {
        "fromNode": 153778278,
        "ID": 163318516,
        "toNode": 163333711,
        "isForward": true
      },
      {
        "fromNode": 163333711,
        "ID": 163745377,
        "toNode": 163505310,
        "isForward": true
      },
      {
        "fromNode": 163505310,
        "ID": 163745378,
        "toNode": 153778261,
        "isForward": true
      },
      {
        "fromNode": 153778261,
        "ID": 146026224,
        "toNode": 153778263,
        "isForward": true
      },
      {
        "fromNode": 153778263,
        "ID": 374182494,
        "toNode": 292915604,
        "isForward": true
      },
      {
        "fromNode": 292915604,
        "ID": 374182496,
        "toNode": 153778267,
        "isForward": true
      },
      {
        "fromNode": 153778267,
        "ID": 146026247,
        "toNode": 153778271,
        "isForward": true
      }
    ]
  },
  {
    "id": 1262014028,
    "timestamp": 1745300812342,
    "latitude": -33.397087,
    "longitude": -70.670678,
    "type": "jam",
    "street": "Av. Independencia",
    "city": "Conchalí",
    "country": "CI",
    "speedKMH": 0,
    "length": 119,
    "delay": -1,
    "level": 5,
    "line": [
      {
        "x": -70.670678,
        "y": -33.397087
      },
      {
        "x": -70.67031,
        "y": -33.397464
      },
      {
        "x": -70.669822,
        "y": -33.397889
      }
    ],
    "segments": [
      {
        "fromNode": 186180115,
        "ID": 194055949,
        "toNode": 155717268,
        "isForward": false
      }
    ]
  },
  {
    "id": 143227142,
    "timestamp": 1745853233719,
    "latitude": -33.430146,
    "longitude": -70.643185,
    "type": "jam",
    "street": "Santa Filomena",
    "city": "Recoleta",
    "country": "CI",
    "speedKMH": 4.6,
    "length": 370,
    "delay": 216,
    "level": 3,
    "line": [
      {
        "x": -70.643185,
        "y": -33.430146
      },
      {
        "x": -70.644326,
        "y": -33.430017
      },
      {
        "x": -70.645649,
        "y": -33.429843
      },
      {
        "x": -70.647022,
        "y": -33.429643
      },
      {
        "x": -70.647112,
        "y": -33.429634
      }
    ],
    "segments": [
      {
        "fromNode": 212151064,
        "ID": 250055123,
        "toNode": 212759531,
        "isForward": true
      },
      {
        "fromNode": 212759531,
        "ID": 251026828,
        "toNode": 212759571,
        "isForward": false
      },
      {
        "fromNode": 212759571,
        "ID": 251026827,
        "toNode": 212153130,
        "isForward": false
      },
      {
        "fromNode": 212153130,
        "ID": 250062218,
        "toNode": 212018641,
        "isForward": true
      }
    ]
  },
  {
    "id": 153606274,
    "timestamp": 1745856717141,
    "latitude": -33.474001,
    "longitude": -70.575036,
    "type": "jam",
    "street": "El Litoral",
    "city": "Peñalolén",
    "country": "CI",
    "speedKMH": 4.67,
    "length": 179,
    "delay": 113,
    "level": 4,
    "line": [
      {
        "x": -70.575036,
        "y": -33.474001
      },
      {
        "x": -70.5746,
        "y": -33.474094
      },
      {
        "x": -70.574156,
        "y": -33.474185
      },
      {
        "x": -70.573828,
        "y": -33.474254
      },
      {
        "x": -70.573664,
        "y": -33.474289
      },
      {
        "x": -70.573368,
        "y": -33.474355
      },
      {
        "x": -70.573171,
        "y": -33.474403
      }
    ],
    "segments": [
      {
        "fromNode": 164123126,
        "ID": 165275959,
        "toNode": 164123125,
        "isForward": false
      },
      {
        "fromNode": 164123125,
        "ID": 165275954,
        "toNode": 164123123,
        "isForward": false
      },
      {
        "fromNode": 164123123,
        "ID": 165275949,
        "toNode": 154205552,
        "isForward": false
      },
      {
        "fromNode": 154205552,
        "ID": 165275947,
        "toNode": 164123122,
        "isForward": false
      },
      {
        "fromNode": 164123122,
        "ID": 165275946,
        "toNode": 154205551,
        "isForward": false
      },
      {
        "fromNode": 154205551,
        "ID": 165275940,
        "toNode": 164123120,
        "isForward": false
      }
    ]
  },
  {
    "id": 152344788,
    "timestamp": 1745856320515,
    "latitude": -33.534159,
    "longitude": -70.63456,
    "type": "jam",
    "street": "Av. Santa Rosa",
    "city": "La Granja",
    "country": "CI",
    "speedKMH": 17.77,
    "length": 769,
    "delay": 70,
    "level": 2,
    "line": [
      {
        "x": -70.63456,
        "y": -33.534159
      },
      {
        "x": -70.63469,
        "y": -33.532901
      },
      {
        "x": -70.634992,
        "y": -33.530819
      },
      {
        "x": -70.635025,
        "y": -33.530586
      },
      {
        "x": -70.635377,
        "y": -33.528913
      },
      {
        "x": -70.63546,
        "y": -33.528252
      },
      {
        "x": -70.635484,
        "y": -33.528033
      },
      {
        "x": -70.635497,
        "y": -33.527957
      },
      {
        "x": -70.635531,
        "y": -33.527678
      },
      {
        "x": -70.635574,
        "y": -33.527295
      }
    ],
    "segments": [
      {
        "fromNode": 251675028,
        "ID": 309242427,
        "toNode": 251675629,
        "isForward": true
      },
      {
        "fromNode": 251675629,
        "ID": 309242559,
        "toNode": 251675763,
        "isForward": true
      },
      {
        "fromNode": 251675763,
        "ID": 309242561,
        "toNode": 251675764,
        "isForward": true
      },
      {
        "fromNode": 251675764,
        "ID": 309242562,
        "toNode": 152716916,
        "isForward": true
      },
      {
        "fromNode": 152716916,
        "ID": 143831833,
        "toNode": 111473670,
        "isForward": true
      },
      {
        "fromNode": 111473670,
        "ID": 146617261,
        "toNode": 154043439,
        "isForward": true
      },
      {
        "fromNode": 154043439,
        "ID": 232573143,
        "toNode": 201155508,
        "isForward": true
      },
      {
        "fromNode": 201155508,
        "ID": 246902009,
        "toNode": 210192822,
        "isForward": true
      },
      {
        "fromNode": 210192822,
        "ID": 246902010,
        "toNode": 154043458,
        "isForward": true
      }
    ]
  },
  {
    "id": 52586232,
    "timestamp": 1742372674163,
    "latitude": -33.433401,
    "longitude": -70.723618,
    "type": "jam",
    "street": "Vicuña Rozas",
    "city": "Cerro Navia",
    "country": "CI",
    "speedKMH": 0,
    "length": 167,
    "delay": -1,
    "level": 5,
    "line": [
      {
        "x": -70.723618,
        "y": -33.433401
      },
      {
        "x": -70.725365,
        "y": -33.433054
      }
    ],
    "segments": [
      {
        "fromNode": 163332045,
        "ID": 149106188,
        "toNode": 163785488,
        "isForward": false
      }
    ]
  },
  {
    "id": 113393436,
    "timestamp": 1745844204949,
    "latitude": -33.451757,
    "longitude": -70.675228,
    "type": "jam",
    "street": "Salvador Sanfuentes",
    "city": "Santiago",
    "country": "CI",
    "speedKMH": 0,
    "length": 131,
    "delay": -1,
    "level": 5,
    "line": [
      {
        "x": -70.675228,
        "y": -33.451757
      },
      {
        "x": -70.673875,
        "y": -33.451445
      }
    ],
    "segments": [
      {
        "fromNode": 153778181,
        "ID": 146026201,
        "toNode": 153778257,
        "isForward": true
      }
    ]
  },
  {
    "id": 1316996746,
    "timestamp": 1744099143719,
    "latitude": -33.397073,
    "longitude": -70.670914,
    "type": "jam",
    "street": "Bartolomé Mandujano",
    "city": "Conchalí",
    "country": "CI",
    "speedKMH": 0,
    "length": 22,
    "delay": -1,
    "level": 5,
    "line": [
      {
        "x": -70.670914,
        "y": -33.397073
      },
      {
        "x": -70.670756,
        "y": -33.396926
      }
    ],
    "segments": [
      {
        "fromNode": 178581413,
        "ID": 194056711,
        "toNode": 178581070,
        "isForward": false
      }
    ]
  },
  {
    "id": 150851588,
    "timestamp": 1745855768876,
    "latitude": -33.45674,
    "longitude": -70.678206,
    "type": "jam",
    "street": "Toesca",
    "city": "Santiago",
    "country": "CI",
    "speedKMH": 6.01,
    "length": 267,
    "delay": 118,
    "level": 3,
    "line": [
      {
        "x": -70.678206,
        "y": -33.45674
      },
      {
        "x": -70.677415,
        "y": -33.456566
      },
      {
        "x": -70.676606,
        "y": -33.456408
      },